Terminal log file
Date: 18-10-2020 - 14:38:35
-----------------------------------------------
$GPRMC,090835.00,A,1247.91991,N,08013.50326,E,6.112,122.99,181020,,,A*67
$GPVTG,122.99,T,,M,6.112,N,11.320,K,A*09
$GPGGA,090835.00,1247.91991,N,08013.50326,E,1,05,3.37,29.9,M,-87.6,M,,*4E
$GPGSA,A,3,20,31,32,23,10,,,,,,,,5.70,3.37,4.60*04
$GPGSV,4,1,15,01,11,320,,08,06,255,,10,48,073,13,11,20,289,*7E
$GPGSV,4,2,15,16,03,197,,18,06,153,,20,27,112,07,21,45,294,17*71
$GPGSV,4,3,15,22,02,317,,23,28,104,09,25,18,076,,26,25,170,*70
$GPGSV,4,4,15,27,13,223,,31,86,250,25,32,36,010,21*43
$GPGLL,1247.91991,N,08013.50326,E,090835.00,A,A*6F
$GPRMC,090836.00,A,1247.91920,N,08013.50401,E,5.578,123.90,181020,,,A*6F
$GPVTG,123.90,T,,M,5.578,N,10.330,K,A*0A
$GPGGA,090836.00,1247.91920,N,08013.50401,E,1,05,3.37,28.0,M,-87.6,M,,*4D
$GPGSA,A,3,20,31,32,23,10,,,,,,,,5.70,3.37,4.60*04
$GPGSV,4,1,15,01,11,320,,08,06,255,,10,48,073,12,11,20,289,*7F
$GPGSV,4,2,15,16,03,197,,18,06,153,,20,27,112,07,21,45,294,17*71
$GPGSV,4,3,15,22,02,317,,23,28,104,09,25,18,076,,26,25,170,*70
$GPGSV,4,4,15,27,13,223,,31,86,250,25,32,36,010,21*43
$GPGLL,1247.91920,N,08013.50401,E,090836.00,A,A*64
$GPRMC,090837.00,A,1247.91817,N,08013.50111,E,3.495,,181020,,,A*7C
$GPVTG,,T,,M,3.495,N,6.473,K,A*2E
$GPGGA,090837.00,1247.91817,N,08013.50111,E,1,04,3.37,21.6,M,-87.6,M,,*43
$GPGSA,A,3,31,32,23,10,,,,,,,,,5.70,3.37,4.59*0C
$GPGSV,4,1,15,01,11,320,,08,06,255,,10,48,073,11,11,20,289,*7C
$GPGSV,4,2,15,16,03,197,,18,06,153,,20,27,112,,21,45,294,17*76
$GPGSV,4,3,15,22,02,317,,23,28,104,09,25,18,076,,26,25,170,*70
$GPGSV,4,4,15,27,13,223,,31,86,250,25,32,36,010,22*40
$GPGLL,1247.91817,N,08013.50111,E,090837.00,A,A*64
$GPRMC,090838.00,A,1247.91805,N,08013.50116,E,2.883,,181020,,,A*7D
$GPVTG,,T,,M,2.883,N,5.340,K,A*20
$GPGGA,090838.00,1247.91805,N,08013.50116,E,1,04,3.37,22.0,M,-87.6,M,,*4D
$GPGSA,A,3,31,32,23,10,,,,,,,,,5.70,3.37,4.59*0C
$GPGSV,4,1,15,01,11,320,,08,06,255,,10,48,073,13,11,20,289,*7E
$GPGSV,4,2,15,16,03,197,,18,06,153,,20,27,112,,21,45,294,17*76
$GPGSV,4,3,15,22,02,317,,23,28,104,10,25,18,076,,26,25,170,*78
$GPGSV,4,4,15,27,13,223,,31,86,250,25,32,36,010,22*40
$GPGLL,1247.91805,N,08013.50116,E,090838.00,A,A*6F
$GPRMC,090839.00,A,1247.91748,N,08013.50038,E,2.503,,181020,,,A*72
$GPVTG,,T,,M,2.503,N,4.636,K,A*20
$GPGGA,090839.00,1247.91748,N,08013.50038,E,1,04,3.37,20.2,M,-87.6,M,,*47
$GPGSA,A,3,31,32,23,10,,,,,,,,,5.70,3.37,4.59*0C
$GPGSV,4,1,15,01,11,320,,08,06,255,,10,48,073,13,11,20,289,*7E
$GPGSV,4,2,15,16,03,197,,18,06,153,,20,27,112,,21,45,294,18*79
$GPGSV,4,3,15,22,02,317,,23,28,104,10,25,18,076,,26,25,170,*78
$GPGSV,4,4,15,27,13,223,,31,86,250,25,32,36,010,22*40
$GPGLL,1247.91748,N,08013.50038,E,090839.00,A,A*65
$GPRMC,090840.00,A,1247.92384,N,08013.51067,E,2.471,,181020,,,A*74
$GPVTG,,T,,M,2.471,N,4.577,K,A*22
$GPGGA,090840.00,1247.92384,N,08013.51067,E,1,04,2.36,54.9,M,-87.6,M,,*4D
$GPGSA,A,2,31,32,23,18,,,,,,,,,2.57,2.36,1.00*0E
$GPGSV,4,1,15,01,11,320,,08,06,255,,10,48,073,,11,20,289,*7C
$GPGSV,4,2,15,16,03,197,,18,06,153,13,20,27,112,,21,45,294,18*7B
$GPGSV,4,3,15,22,02,317,,23,28,104,10,25,18,076,,26,25,170,*78
$GPGSV,4,4,15,27,13,223,,31,86,250,26,32,36,010,21*40
$GPGLL,1247.92384,N,08013.51067,E,090840.00,A,A*67
$GPRMC,090841.00,A,1247.92323,N,08013.50961,E,1.955,,181020,,,A*7E
$GPVTG,,T,,M,1.955,N,3.621,K,A*2D
$GPGGA,090841.00,1247.92323,N,08013.50961,E,1,03,2.36,51.6,M,-87.6,M,,*42
$GPGSA,A,2,31,32,23,,,,,,,,,,2.57,2.36,1.00*07
$GPGSV,4,1,15,01,11,320,,08,06,255,,10,48,073,,11,20,289,*7C
$GPGSV,4,2,15,16,03,197,,18,06,153,09,20,27,112,,21,45,294,18*70
$GPGSV,4,3,15,22,02,317,,23,28,104,10,25,18,076,,26,25,170,*78
$GPGSV,4,4,15,27,13,223,,31,86,250,25,32,36,010,21*43
$GPGLL,1247.92323,N,08013.50961,E,090841.00,A,A*65
$GPRMC,090842.00,A,1247.92308,N,08013.50793,E,0.997,,181020,,,A*78
$GPVTG,,T,,M,0.997,N,1.846,K,A*2F
$GPGGA,090842.00,1247.92308,N,08013.50793,E,1,03,2.36,48.7,M,-87.6,M,,*42
$GPGSA,A,2,31,32,23,,,,,,,,,,2.57,2.36,1.00*07
$GPGSV,4,1,15,01,11,320,,08,06,255,,10,48,073,,11,20,289,*7C
$GPGSV,4,2,15,16,03,197,,18,06,153,08,20,27,112,,21,45,294,18*71
$GPGSV,4,3,15,22,02,317,,23,28,104,11,25,18,076,,26,25,170,*79
$GPGSV,4,4,15,27,13,223,,31,86,250,26,32,36,010,21*40
$GPGLL,1247.92308,N,08013.50793,E,090842.00,A,A*6C
$GPRMC,090843.00,A,1247.92307,N,08013.50705,E,0.621,,181020,,,A*7B
$GPVTG,,T,,M,0.621,N,1.149,K,A*2B
$GPGGA,090843.00,1247.92307,N,08013.50705,E,1,03,2.36,46.3,M,-87.6,M,,*49
$GPGSA,A,2,31,32,23,,,,,,,,,,2.57,2.36,1.00*07
$GPGSV,4,1,15,01,11,320,,08,06,255,,10,48,073,07,11,20,289,*7B
$GPGSV,4,2,15,16,03,197,,18,06,153,08,20,27,112,,21,45,294,17*7E
$GPGSV,4,3,15,22,02,317,,23,28,104,11,25,18,076,,26,25,170,*79
$GPGSV,4,4,15,27,13,223,,31,86,250,26,32,36,010,21*40
$GPGLL,1247.92307,N,08013.50705,E,090843.00,A,A*6D
$GPRMC,090844.00,A,1247.92277,N,08013.50673,E,0.763,,181020,,,A*7D
$GPVTG,,T,,M,0.763,N,1.414,K,A*21
$GPGGA,090844.00,1247.92277,N,08013.50673,E,1,03,2.36,44.4,M,-87.6,M,,*4D
$GPGSA,A,2,31,32,23,,,,,,,,,,2.57,2.36,1.00*07
$GPGSV,4,1,15,01,11,320,,08,06,255,,10,48,073,08,11,20,289,*74
$GPGSV,4,2,15,16,03,197,,18,06,153,06,20,27,112,,21,45,294,16*71
$GPGSV,4,3,15,22,02,317,,23,28,104,13,25,18,076,,26,25,170,*7B
$GPGSV,4,4,15,27,13,223,,31,86,250,26,32,36,010,20*41
$GPGLL,1247.92277,N,08013.50673,E,090844.00,A,A*6C
$GPRMC,090845.00,A,1247.92231,N,08013.50631,E,0.802,,181020,,,A*70
$GPVTG,,T,,M,0.802,N,1.485,K,A*21
$GPGGA,090845.00,1247.92231,N,08013.50631,E,1,04,2.37,42.7,M,-87.6,M,,*4B
$GPGSA,A,2,31,32,23,10,,,,,,,,,2.57,2.37,1.00*07
$GPGSV,4,1,15,01,11,320,,08,06,255,,10,48,073,13,11,20,289,*7E
$GPGSV,4,2,15,16,03,197,,18,06,153,06,20,27,112,,21,45,294,18*7F
$GPGSV,4,3,15,22,02,317,,23,28,104,13,25,18,076,,26,25,170,*7B
$GPGSV,4,4,15,27,13,223,,31,86,250,26,32,36,010,20*41
$GPGLL,1247.92231,N,08013.50631,E,090845.00,A,A*69
$GPRMC,090846.00,A,1247.92188,N,08013.50572,E,0.712,,181020,,,A*78
$GPVTG,,T,,M,0.712,N,1.318,K,A*2C
$GPGGA,090846.00,1247.92188,N,08013.50572,E,1,04,2.37,41.2,M,-87.6,M,,*4B
$GPGSA,A,2,31,32,23,10,,,,,,,,,2.57,2.37,1.00*07
$GPGSV,4,1,15,01,11,320,,08,06,255,,10,48,073,14,11,20,289,*79
$GPGSV,4,2,15,16,03,197,,18,06,153,06,20,27,112,,21,45,294,17*70
$GPGSV,4,3,15,22,02,317,,23,28,104,13,25,18,076,,26,25,170,*7B
$GPGSV,4,4,15,27,13,223,,31,86,250,26,32,36,010,21*40
$GPGLL,1247.92188,N,08013.50572,E,090846.00,A,A*6F
$GPRMC,090847.00,A,1247.92189,N,08013.50645,E,1.041,,181020,,,A*7F
$GPVTG,,T,,M,1.041,N,1.928,K,A*25
$GPGGA,090847.00,1247.92189,N,08013.50645,E,1,04,3.37,41.4,M,-87.6,M,,*4B
$GPGSA,A,3,31,32,23,10,,,,,,,,,5.70,3.37,4.59*0C
$GPGSV,4,1,15,01,11,320,,08,06,255,,10,48,073,15,11,20,289,*78
$GPGSV,4,2,15,16,03,197,,18,06,153,06,20,27,112,,21,45,294,18*7F
$GPGSV,4,3,15,22,02,317,,23,28,104,13,25,18,076,,26,25,170,*7B
$GPGSV,4,4,15,27,13,223,,31,86,250,26,32,36,010,20*41
$GPGLL,1247.92189,N,08013.50645,E,090847.00,A,A*68
$GPRMC,090848.00,A,1247.92135,N,08013.50721,E,1.506,,181020,,,A*72
$GPVTG,,T,,M,1.506,N,2.789,K,A*25
$GPGGA,090848.00,1247.92135,N,08013.50721,E,1,04,3.37,41.7,M,-87.6,M,,*43
$GPGSA,A,3,31,32,23,10,,,,,,,,,5.70,3.37,4.59*0C
$GPGSV,4,1,15,01,11,320,,08,06,255,,10,48,073,15,11,20,289,*78
$GPGSV,4,2,15,16,03,197,,18,06,153,06,20,27,112,,21,45,294,18*7F
$GPGSV,4,3,15,22,02,317,,23,28,104,13,25,18,076,,26,25,170,*7B
$GPGSV,4,4,15,27,13,223,,31,86,250,26,32,36,010,21*40
$GPGLL,1247.92135,N,08013.50721,E,090848.00,A,A*63
$GPRMC,090849.00,A,1247.92100,N,08013.50760,E,1.614,,181020,,,A*70
$GPVTG,,T,,M,1.614,N,2.990,K,A*23
$GPGGA,090849.00,1247.92100,N,08013.50760,E,1,04,3.37,41.8,M,-87.6,M,,*4E
$GPGSA,A,3,31,32,23,10,,,,,,,,,5.70,3.37,4.59*0C
$GPGSV,4,1,15,01,11,320,,08,06,255,,10,48,073,15,11,20,289,*78
$GPGSV,4,2,15,16,03,197,,18,06,153,06,20,27,112,,21,45,294,18*7F
$GPGSV,4,3,15,22,02,317,,23,28,104,12,25,18,076,,26,25,170,*7A
$GPGSV,4,4,15,27,13,223,,31,86,250,25,32,36,010,21*43
$GPGLL,1247.92100,N,08013.50760,E,090849.00,A,A*61
$GPRMC,090850.00,A,1247.92091,N,08013.50794,E,1.566,,181020,,,A*7C
$GPVTG,,T,,M,1.566,N,2.901,K,A*2D
$GPGGA,090850.00,1247.92091,N,08013.50794,E,1,05,3.38,41.9,M,-87.6,M,,*4B
$GPGSA,A,3,31,32,23,10,18,,,,,,,,5.70,3.38,4.59*0A
$GPGSV,4,1,15,01,11,320,,08,06,255,,10,48,073,16,11,20,289,*7B
$GPGSV,4,2,15,16,03,197,,18,06,153,07,20,27,112,,21,45,294,17*71
$GPGSV,4,3,15,22,02,317,,23,28,104,08,25,18,076,,26,25,170,*71
$GPGSV,4,4,15,27,13,223,,31,86,250,25,32,36,010,21*43
$GPGLL,1247.92091,N,08013.50794,E,090850.00,A,A*6B
$GPRMC,090851.00,A,1247.92073,N,08013.50743,E,1.047,,181020,,,A*7D
$GPVTG,,T,,M,1.047,N,1.939,K,A*23
$GPGGA,090851.00,1247.92073,N,08013.50743,E,1,05,3.38,42.0,M,-87.6,M,,*46
$GPGSA,A,3,31,32,23,10,18,,,,,,,,5.69,3.38,4.59*02
$GPGSV,4,1,15,01,11,320,,08,06,255,,10,48,073,17,11,20,289,*7A
$GPGSV,4,2,15,16,03,197,,18,06,153,07,20,27,112,,21,45,294,18*7E
$GPGSV,4,3,15,22,02,317,,23,28,104,08,25,18,076,,26,25,170,*71
$GPGSV,4,4,15,27,13,223,,31,86,250,25,32,36,010,21*43
$GPGLL,1247.92073,N,08013.50743,E,090851.00,A,A*6C
$GPRMC,090852.00,A,1247.92100,N,08013.50694,E,0.468,,181020,,,A*78
$GPVTG,,T,,M,0.468,N,0.866,K,A*21
$GPGGA,090852.00,1247.92100,N,08013.50694,E,1,04,3.38,42.1,M,-87.6,M,,*4B
$GPGSA,A,3,31,32,23,10,,,,,,,,,5.69,3.38,4.59*0B
$GPGSV,4,1,15,01,11,320,,08,06,255,,10,48,073,17,11,20,289,*7A
$GPGSV,4,2,15,16,03,197,,18,06,153,,20,27,112,,21,45,294,17*76
$GPGSV,4,3,15,22,02,317,,23,28,104,08,25,18,076,,26,25,170,*71
$GPGSV,4,4,15,27,13,223,,31,86,250,25,32,36,010,21*43
$GPGLL,1247.92100,N,08013.50694,E,090852.00,A,A*61
$GPRMC,090853.00,A,1247.92067,N,08013.50748,E,0.924,,181020,,,A*7C
$GPVTG,,T,,M,0.924,N,1.710,K,A*2B
$GPGGA,090853.00,1247.92067,N,08013.50748,E,1,04,3.38,42.2,M,-87.6,M,,*49
$GPGSA,A,3,31,32,23,10,,,,,,,,,5.69,3.38,4.59*0B
$GPGSV,4,1,15,01,11,320,,08,06,255,,10,48,073,16,11,20,289,*7B
$GPGSV,4,2,15,16,03,197,,18,06,153,,20,27,112,,21,45,294,18*79

-----------------------------------------------
Date: 18-10-2020 - 14:38:54
End log file
