Terminal log file
Date: 18-10-2020 - 15:41:27
-----------------------------------------------
$GPGGA,101127.00,1247.93009,N,08013.50681,,20,09,134,1881,,20,09,134,184.5,M,-87.6,M,,*48
$GPGSA,A,3,31,32,26,10,,,,,,,,,12.41,6.76,10.40*00
$GPGSV,4,1,16,01,28,298,,03,03,322,,04,01,279,,08,01,229,*79
$GPGSV,4,2,16,10,39,116,10,11,22,258,,16,22,1*70
$GPGSV,4,3,16,21,46,250,,22,24,326,,23,12,129,,25,09,049,*75
$GPGSV,4,4,16,26,47,147,20,27,07,198,,31,59,008,19,32,28,039,13*76
$GPGLL,1247.93009,N,08013.50668,E,101127.00,A,A*69
$GPRMC,101128.00,A,1247.92962,N,08013.50803,E,5.509,79.82,181020,,,A*50
$GPVTG,79.82,T,,M,5.509,N,10.202,K,A*31
$GPGGA,101128.00,1247.92962,N,08013.50803,E,1,04,6.77,24.5,M,-87.6,M,,*40
$GPGSA,A,3,31,32,26,10,,,,,,,,,12.43,6.77,10.42*01
$GPGSV,4,1,16,01,28,298,,03,03,322,,04,01,279,,08,01,229,*79
$GPGSV,4,2,16,10,39,116,10,11,22,258,,16,22,181,,20,09,134,16*7E
$GPGSV,4,3,16,21,46,250,,22,24,326,,23,12,129,,25,09,049,*75
$GPGSV,4,4,16,26,47,147,20,27,07,198,,31,59,008,18,32,28,039,13*77
$GPGLL,1247.92962,N,08013.50803,E,101128.00,A,A*60
$GPRMC,101129.00,A,1247.93001,N,08013.50906,E,4.993,77.64,181020,,,A*50
$GPVTG,77.64,T,,M,4.993,N,9.247,K,A*00
$GPGGA,101129.00,1247.93001,N,08013.50906,E,1,04,6.78,24.5,M,-87.6,M,,*47
$GPGSA,A,3,31,32,26,10,,,,,,,,,12.44,6.78,10.43*08
$GPGSV,4,1,16,01,28,298,,03,03,322,,04,01,279,,08,01,229,*79
$GPGSV,4,2,16,10,39,116,10,11,22,258,,16,22,181,,20,09,134,09*70
$GPGSV,4,3,16,21,46,250,,22,24,326,,23,12,129,,25,09,049,*75
$GPGSV,4,4,16,26,47,147,20,27,07,198,,31,59,008,18,32,28,039,13*77
$GPGLL,1247.93001,N,08013.50906,E,101129.00,A,A*68
$GPRMC,101130.00,A,1247.93048,N,08013.51035,E,4.794,74.02,181020,,,A*57
$GPVTG,74.02,T,,M,4.794,N,8.878,K,A*0D
$GPGGA,101130.00,1247.93048,N,08013.51035,E,1,04,6.79,24.5,M,-87.6,M,,*4B
$GPGSA,A,3,31,32,26,10,,,,,,,,,12.46,6.79,10.45*0D
$GPGSV,4,1,16,01,28,298,,03,03,322,,04,01,279,,08,01,229,*79
$GPGSV,4,2,16,10,39,116,10,11,22,258,,16,22,181,,20,09,134,08*71
$GPGSV,4,3,16,21,46,250,,22,24,326,,23,12,129,,25,09,049,*75
$GPGSV,4,4,16,26,47,147,20,27,07,198,,31,59,008,17,32,28,039,13*78
$GPGLL,1247.93048,N,08013.51035,E,101130.00,A,A*65
$GPRMC,101131.00,A,1247.93051,N,08013.51011,E,3.913,70.78,181020,,,A*57
$GPVTG,70.78,T,,M,3.913,N,7.246,K,A*0A
$GPGGA,101131.00,1247.93051,N,08013.51011,E,1,04,6.80,24.5,M,-87.6,M,,*42
$GPGSA,A,3,31,32,26,10,,,,,,,,,12.48,6.80,10.46*06
$GPGSV,4,1,16,01,28,298,,03,03,322,,04,01,279,,08,01,229,*79
$GPGSV,4,2,16,10,39,116,11,11,22,258,,16,22,181,,20,09,134,09*71
$GPGSV,4,3,16,21,46,250,,22,24,326,,23,12,129,,25,09,049,*75
$GPGSV,4,4,16,26,47,147,20,27,07,198,,31,59,008,19,32,28,039,14*71
$GPGLL,1247.93051,N,08013.51011,E,101131.00,A,A*6A
$GPRMC,101132.00,A,1247.92991,N,08013.50861,E,2.642,,181020,,,A*72
$GPVTG,,T,,M,2.642,N,4.893,K,A*27
$GPGGA,101132.00,1247.92991,N,08013.50861,E,1,04,6.81,24.5,M,-87.6,M,,*4A
$GPGSA,A,3,31,32,26,10,,,,,,,,,12.50,6.81,10.48*00
$GPGSV,4,1,16,01,28,298,,03,03,322,,04,01,279,,08,01,229,*79
$GPGSV,4,2,16,10,39,116,09,11,22,258,,16,22,181,,20,09,134,09*78
$GPGSV,4,3,16,21,46,250,,22,24,326,,23,12,129,,25,09,049,*75
$GPGSV,4,4,16,26,47,147,20,27,07,198,,31,59,008,19,32,28,039,13*76
$GPGLL,1247.92991,N,08013.50861,E,101132.00,A,A*63
$GPRMC,101133.00,A,1247.92948,N,08013.50808,E,1.849,,181020,,,A*7E
$GPVTG,,T,,M,1.849,N,3.424,K,A*26
$GPGGA,101133.00,1247.92948,N,08013.50808,E,1,04,6.82,24.5,M,-87.6,M,,*43
$GPGSA,A,3,31,32,26,10,,,,,,,,,12.51,6.82,10.49*03
$GPGSV,4,1,16,01,28,298,,03,03,322,,04,01,279,,08,01,229,*79
$GPGSV,4,2,16,10,39,116,09,11,22,258,,16,22,181,,20,09,134,09*78
$GPGSV,4,3,16,21,46,250,,22,24,326,,23,12,129,,25,09,049,*75
$GPGSV,4,4,16,26,47,147,21,27,07,198,,31,59,008,19,32,28,039,13*77
$GPGLL,1247.92948,N,08013.50808,E,101133.00,A,A*69
$GPRMC,101134.00,A,1247.92975,N,08013.50862,E,1.824,,181020,,,A*70
$GPVTG,,T,,M,1.824,N,3.379,K,A*22
$GPGGA,101134.00,1247.92975,N,08013.50862,E,1,04,6.83,24.5,M,-87.6,M,,*47
$GPGSA,A,3,31,32,26,10,,,,,,,,,12.53,6.83,10.50*08
$GPGSV,4,1,16,01,28,298,,03,03,322,,04,01,279,,08,01,229,*79
$GPGSV,4,2,16,10,39,116,09,11,22,258,,16,22,181,,20,09,134,09*78
$GPGSV,4,3,16,21,46,250,,22,24,326,,23,12,129,,25,09,049,*75
$GPGSV,4,4,16,26,47,147,21,27,07,198,,31,59,008,20,32,28,039,13*7D
$GPGLL,1247.92975,N,08013.50862,E,101134.00,A,A*6C
$GPRMC,101135.00,A,1247.92996,N,08013.50820,E,1.658,,181020,,,A*7F
$GPVTG,,T,,M,1.658,N,3.070,K,A*2D
$GPGGA,101135.00,1247.92996,N,08013.50820,E,1,04,6.84,24.5,M,-87.6,M,,*4A
$GPGSA,A,3,31,32,26,10,,,,,,,,,12.55,6.84,10.52*0B
$GPGSV,4,1,16,01,28,298,,03,03,322,,04,01,279,,08,01,229,*79
$GPGSV,4,2,16,10,39,116,09,11,22,258,,16,22,181,,20,09,134,09*78
$GPGSV,4,3,16,21,46,250,,22,24,326,,23,12,129,,25,09,049,*75
$GPGSV,4,4,16,26,47,147,21,27,07,198,,31,59,008,20,32,28,039,13*7D
$GPGLL,1247.92996,N,08013.50820,E,101135.00,A,A*66
$GPRMC,101136.00,A,1247.92969,N,08013.50586,E,1.071,,181020,,,A*70
$GPVTG,,T,,M,1.071,N,1.983,K,A*27
$GPGGA,101136.00,1247.92969,N,08013.50586,E,1,04,6.85,24.5,M,-87.6,M,,*49
$GPGSA,A,3,31,32,26,10,,,,,,,,,12.57,6.85,10.53*09
$GPGSV,4,1,16,01,28,298,,03,03,322,,04,01,279,,08,01,229,*79
$GPGSV,4,2,16,10,39,116,09,11,22,258,,16,22,181,,20,09,134,09*78
$GPGSV,4,3,16,21,46,250,,22,24,326,,23,12,129,,25,09,049,*75
$GPGSV,4,4,16,26,47,147,21,27,07,198,,31,59,008,21,32,28,039,13*7C
$GPGLL,1247.92969,N,08013.50586,E,101136.00,A,A*64
$GPRMC,101137.00,A,1247.92954,N,08013.50560,E,0.901,,181020,,,A*78
$GPVTG,,T,,M,0.901,N,1.669,K,A*23
$GPGGA,101137.00,1247.92954,N,08013.50560,E,1,04,6.86,24.6,M,-87.6,M,,*4E
$GPGSA,A,3,31,32,26,10,,,,,,,,,12.58,6.86,10.55*03
$GPGSV,4,1,16,01,28,298,,03,03,322,,04,01,279,,08,01,229,*79
$GPGSV,4,2,16,10,39,116,09,11,22,258,,16,22,181,,20,09,134,09*78
$GPGSV,4,3,16,21,46,250,,22,24,326,,23,12,129,,25,09,049,*75
$GPGSV,4,4,16,26,47,147,20,27,07,198,,31,59,008,20,32,28,039,13*7C
$GPGLL,1247.92954,N,08013.50560,E,101137.00,A,A*63
$GPRMC,101138.00,A,1247.92941,N,08013.50646,E,0.804,,181020,,,A*70
$GPVTG,,T,,M,0.804,N,1.488,K,A*2A
$GPGGA,101138.00,1247.92941,N,08013.50646,E,1,04,6.87,24.5,M,-87.6,M,,*40
$GPGSA,A,3,31,32,26,10,,,,,,,,,12.60,6.87,10.56*0A
$GPGSV,4,1,16,01,28,298,,03,03,322,,04,01,279,,08,01,229,*79
$GPGSV,4,2,16,10,39,116,12,11,22,258,,16,22,181,,20,09,134,08*73
$GPGSV,4,3,16,21,46,250,,22,24,326,,23,12,129,,25,09,049,*75
$GPGSV,4,4,16,26,47,147,20,27,07,198,,31,59,008,20,32,28,039,14*7B
$GPGLL,1247.92941,N,08013.50646,E,101138.00,A,A*6F
$GPRMC,101139.00,A,1247.92934,N,08013.50657,E,0.804,,181020,,,A*73
$GPVTG,,T,,M,0.804,N,1.489,K,A*2B
$GPGGA,101139.00,1247.92934,N,08013.50657,E,1,04,6.88,24.5,M,-87.6,M,,*4C
$GPGSA,A,3,31,32,26,10,,,,,,,,,12.62,6.88,10.58*09
$GPGSV,4,1,16,01,28,298,,03,03,322,,04,01,279,,08,01,229,*79
$GPGSV,4,2,16,10,39,116,12,11,22,258,,16,22,181,,20,09,134,08*73
$GPGSV,4,3,16,21,46,250,,22,24,326,,23,12,129,,25,09,049,*75
$GPGSV,4,4,16,26,47,147,20,27,07,198,,31,59,008,20,32,28,039,14*7B
$GPGLL,1247.92934,N,08013.50657,E,101139.00,A,A*6C
$GPRMC,101140.00,A,1247.92900,N,08013.50591,E,0.507,,181020,,,A*7D
$GPVTG,,T,,M,0.507,N,0.938,K,A*23
$GPGGA,101140.00,1247.92900,N,08013.50591,E,1,04,6.89,24.5,M,-87.6,M,,*4D
$GPGSA,A,3,31,32,26,10,,,,,,,,,12.64,6.89,10.59*0F
$GPGSV,4,1,16,01,28,298,,03,03,322,,04,01,279,,08,01,229,*79
$GPGSV,4,2,16,10,39,116,12,11,22,258,,16,22,181,,20,09,134,08*73
$GPGSV,4,3,16,21,46,250,,22,24,326,,23,12,129,,25,09,049,*75
$GPGSV,4,4,16,26,47,147,21,27,07,198,,31,59,008,20,32,28,039,14*7A
$GPGLL,1247.92900,N,08013.50591,E,101140.00,A,A*6C
$GPRMC,101141.00,A,1247.92890,N,08013.50644,E,0.560,,181020,,,A*7E
$GPVTG,,T,,M,0.560,N,1.037,K,A*25
$GPGGA,101141.00,1247.92890,N,08013.50644,E,1,04,6.90,24.5,M,-87.6,M,,*47
$GPGSA,A,3,31,32,26,10,,,,,,,,,12.66,6.90,10.61*0E
$GPGSV,4,1,16,01,28,298,,03,03,322,,04,01,280,,08,01,229,*7F
$GPGSV,4,2,16,10,39,116,12,11,22,258,,16,22,181,,20,09,134,08*73
$GPGSV,4,3,16,21,46,250,,22,24,326,,23,12,129,,25,09,049,*75
$GPGSV,4,4,16,26,47,147,21,27,07,198,,31,59,008,20,32,28,039,14*7A
$GPGLL,1247.92890,N,08013.50644,E,101141.00,A,A*6E
$GPRMC,101142.00,A,1247.92927,N,08013.50744,E,1.024,,181020,,,A*75
$GPVTG,,T,,M,1.024,N,1.896,K,A*22
$GPGGA,101142.00,1247.92927,N,08013.50744,E,1,04,6.91,24.6,M,-87.6,M,,*4A
$GPGSA,A,3,31,32,26,10,,,,,,,,,12.67,6.91,10.62*0D
$GPGSV,4,1,16,01,28,298,,03,03,322,,04,01,280,,08,01,229,*7F
$GPGSV,4,2,16,10,39,116,12,11,22,258,,16,22,181,,20,09,134,08*73
$GPGSV,4,3,16,21,46,250,,22,24,326,,23,12,129,,25,09,049,*75
$GPGSV,4,4,16,26,47,147,21,27,07,198,,31,59,008,20,32,28,039,14*7A
$GPGLL,1247.92927,N,08013.50744,E,101142.00,A,A*61
$GPRMC,101143.00,A,1247.92931,N,08013.50856,E,1.155,,181020,,,A*78
$GPVTG,,T,,M,1.155,N,2.139,K,A*2A
$GPGGA,101143.00,1247.92931,N,08013.50856,E,1,04,6.92,24.6,M,-87.6,M,,*43
$GPGSA,A,3,31,32,26,10,,,,,,,,,12.69,6.92,10.64*06
$GPGSV,4,1,16,01,28,298,,03,03,322,,04,01,280,,08,01,229,*7F
$GPGSV,4,2,16,10,39,116,12,11,22,258,,16,22,181,,20,09,134,08*73
$GPGSV,4,3,16,21,46,250,,22,24,326,,23,12,129,,25,09,049,*75
$GPGSV,4,4,16,26,47,147,20,27,07,198,,31,59,008,20,32,28,039,14*7B
$GPGLL,1247.92931,N,08013.50856,E,101143.00,A,A*6B
$GPRMC,101144.00,A,1247.92958,N,08013.50952,E,1.401,,181020,,,A*71
$GPVTG,,T,,M,1.401,N,2.595,K,A*2C
$GPGGA,101144.00,1247.92958,N,08013.50952,E,1,04,6.93,24.6,M,-87.6,M,,*4F
$GPGSA,A,3,31,32,26,10,,,,,,,,,12.71,6.93,10.65*0F
$GPGSV,4,1,16,01,28,298,,03,03,322,,04,01,280,,08,01,229,*7F
$GPGSV,4,2,16,10,39,116,08,11,22,258,,16,22,181,,20,09,134,07*77
$GPGSV,4,3,16,21,46,250,,22,24,326,,23,12,129,,25,09,049,*75
$GPGSV,4,4,16,26,47,147,19,27,07,198,,31,59,008,18,32,28,039,13*7D
$GPGLL,1247.92958,N,08013.50952,E,101144.00,A,A*66
$GPRMC,101145.00,A,1247.92916,N,08013.50931,E,1.087,,181020,,,A*75
$GPVTG,,T,,M,1.087,N,2.013,K,A*2D
$GPGGA,101145.00,1247.92916,N,08013.50931,E,1,03,4.54,24.5,M,-87.6,M,,*4C
$GPGSA,A,2,32,26,10,,,,,,,,,,4.65,4.54,1.00*04
$GPGSV,4,1,16,01,28,298,,03,03,322,,04,01,280,,08,01,228,*7E
$GPGSV,4,2,16,10,39,116,08,11,22,258,,16,22,181,,20,09,134,07*77
$GPGSV,4,3,16,21,46,250,,22,24,326,,23,12,129,,25,09,049,*75
$GPGSV,4,4,16,26,47,147,20,27,07,198,,31,59,008,,32,28,039,13*7E
$GPGLL,1247.92916,N,08013.50931,E,101145.00,A,A*68
$GPRMC,101146.00,A,1247.92862,N,08013.50837,E,0.517,,181020,,,A*7E
$GPVTG,,T,,M,0.517,N,0.957,K,A*2B
$GPGGA,101146.00,1247.92862,N,08013.50837,E,1,03,4.54,24.5,M,-87.6,M,,*4A
$GPGSA,A,2,32,26,10,,,,,,,,,,4.65,4.54,1.00*04
$GPGSV,4,1,16,01,28,298,,03,03,322,,04,01,280,,08,01,228,*7E
$GPGSV,4,2,16,10,39,116,08,11,22,258,,16,22,181,,20,09,134,07*77
$GPGSV,4,3,16,21,46,250,,22,24,326,,23,12,129,,25,09,049,*75
$GPGSV,4,4,16,26,47,147,20,27,07,198,,31,59,008,,32,28,039,13*7E
$GPGLL,1247.92862,N,08013.50837,E,101146.00,A,A*6E
$GPRMC,101147.00,A,1247.92835,N,08013.50779,E,0.246,,181020,,,A*7B
$GPVTG,,T,,M,0.246,N,0.455,K,A*27
$GPGGA,101147.00,1247.92835,N,08013.50779,E,1,04,4.54,24.5,M,-87.6,M,,*4B
$GPGSA,A,2,31,32,26,10,,,,,,,,,4.65,4.54,1.00*06
$GPGSV,4,1,16,01,28,298,,03,03,322,,04,01,280,,08,01,228,*7E
$GPGSV,4,2,16,10,38,116,08,11,22,258,,16,22,181,,20,09,134,07*76
$GPGSV,4,3,16,21,46,250,,22,24,326,,23,12,129,,25,09,049,*75
$GPGSV,4,4,16,26,47,147,19,27,07,198,,31,59,008,16,32,28,039,13*73
$GPGLL,1247.92835,N,08013.50779,E,101147.00,A,A*68
$GPRMC,101148.00,A,1247.92757,N,08013.50665,E,0.728,,181020,,,A*7E
$GPVTG,,T,,M,0.728,N,1.348,K,A*20
$GPGGA,101148.00,1247.92757,N,08013.50665,E,1,04,4.54,24.5,M,-87.6,M,,*43
$GPGSA,A,2,31,32,26,10,,,,,,,,,4.65,4.54,1.00*06
$GPGSV,4,1,16,01,28,298,,03,03,322,,04,01,280,,08,01,228,*7E
$GPGSV,4,2,16,10,38,116,08,11,21,257,,16,22,181,,20,09,134,07*7A
$GPGSV,4,3,16,21,46,250,,22,24,326,,23,12,129,,25,09,049,*75
$GPGSV,4,4,16,26,47,147,18,27,07,198,,31,59,008,16,32,28,039,13*72
$GPGLL,1247.92757,N,08013.50665,E,101148.00,A,A*60
$GPRMC,101149.00,A,1247.92731,N,08013.50519,E,0.947,,181020,,,A*70
$GPVTG,,T,,M,0.947,N,1.753,K,A*29
$GPGGA,101149.00,1247.92731,N,08013.50519,E,1,04,4.54,24.5,M,-87.6,M,,*4A
$GPGSA,A,2,31,32,26,10,,,,,,,,,4.65,4.54,1.00*06
$GPGSV,4,1,16,01,28,298,,03,03,322,,04,01,280,,08,01,228,*7E
$GPGSV,4,2,16,10,38,116,08,11,21,257,,16,22,181,,20,09,134,*7D
$GPGSV,4,3,16,21,46,250,,22,24,326,,23,12,129,,25,09,049,*75
$GPGSV,4,4,16,26,47,147,17,27,07,198,,31,59,008,15,32,28,039,13*7E
$GPGLL,1247.92731,N,08013.50519,E,101149.00,A,A*69
$GPRMC,101150.00,V,,,,,,,181020,,,N*73
$GPVTG,,,,,,,,,N*30
$GPGGA,101150.00,,,,,0,00,99.99,,,,,,*62
$GPGSA,A,1,,,,,,,,,,,,,99.99,99.99,99.99*30
$GPGSV,4,1,16,01,28,298,,03,03,322,,04,01,280,,08,01,228,*7E
$GPGSV,4,2,16,10,38,116,06,11,21,257,,16,22,181,,20,09,134,*73
$GPGSV,4,3,16,21,46,250,,22,24,326,,23,12,129,,25,09,049,*75
$GPGSV,4,4,16,26,47,147,16,27,07,198,,31,59,008,14,32,28,039,07*7B
$GPGLL,,,,,101150.00,V,N*4E
$GPRMC,101151.00,A,1247.92734,N,08013.50309,E,0.980,,181020,,,A*70
$GPVTG,,T,,M,0.980,N,1.816,K,A*2C
$GPGGA,101151.00,1247.92734,N,08013.50309,E,1,03,3.16,24.5,M,-87.6,M,,*47
$GPGSA,A,2,31,32,26,,,,,,,,,,3.32,3.16,1.00*03
$GPGSV,4,1,16,01,28,298,,03,03,322,,04,01,280,,08,01,228,*7E
$GPGSV,4,2,16,10,38,116,06,11,21,257,,16,22,181,,20,09,134,*73
$GPGSV,4,3,16,21,46,250,,22,24,326,,23,12,129,,25,09,049,*75
$GPGSV,4,4,16,26,47,147,18,27,07,198,,31,59,008,17,32,28,039,08*79
$GPGLL,1247.92734,N,08013.50309,E,101151.00,A,A*62
$GPRMC,101152.00,V,,,,,,,181020,,,N*71
$GPVTG,,,,,,,,,N*30
$GPGGA,101152.00,,,,,0,00,99.99,,,,,,*60
$GPGSA,A,1,,,,,,,,,,,,,99.99,99.99,99.99*30
$GPGSV,4,1,16,01,28,298,,03,03,322,,04,01,280,,08,01,228,*7E
$GPGSV,4,2,16,10,38,116,06,11,21,257,,16,22,181,,20,09,134,*73
$GPGSV,4,3,16,21,46,250,,22,24,326,,23,12,129,,25,09,049,*75
$GPGSV,4,4,16,26,47,147,19,27,07,198,,31,59,008,16,32,28,039,08*79
$GPGLL,,,,,101152.00,V,N*4C
$GPRMC,101153.00,V,,,,,,,181020,,,N*70
$GPVTG,,,,,,,,,N*30
$GPGGA,101153.00,,,,,0,00,99.99,,,,,,*61
$GPGSA,A,1,,,,,,,,,,,,,99.99,99.99,99.99*30
$GPGSV,4,1,16,01,28,298,,03,03,322,,04,01,280,,08,01,228,*7E
$GPGSV,4,2,16,10,38,116,06,11,21,257,,16,22,181,,20,09,134,*73
$GPGSV,4,3,16,21,46,250,,22,24,326,,23,12,129,,25,09,049,*75
$GPGSV,4,4,16,26,47,147,18,27,07,198,,31,59,008,15,32,28,039,08*7B
$GPGLL,,,,,101153.00,V,N*4D
$GPRMC,101154.00,V,,,,,,,181020,,,N*77
$GPVTG,,,,,,,,,N*30
GGA,101154.00,,,,,0,00,99.99,,,,,,*66
$GPGSA,A,1,,,,,,,,,,,,,99.99,99.99,99.99*30
$GPGSV,4,1,16,01,28,298,,03,03,322,,04,01,280,,08,01,228,*7E
$GPGSV,4,2,16,10,38,116,06,11,21,257,,16,22,181,,20,09,134,*73
$GPGSV,4,3,16,21,46,250,,22,24,326,,23,12,129,,25,09,049,*75
$GPGSV,4,4,16,26,47,147,18,27,07,198,,31,59,008,14,32,28,039,08*7A
$GPGLL,,,,,101154.00,V,N*4A
$GPRMC,101155.00,V,,,,,,,181020,,,N*76
$GPVTG,,,,,,,,,N*30
$GPGGA,101155.00,,,,,0,00,99.99,,,,,,*67
$GPGSA,A,1,,,,,,,,,,,,,99.99,99.99,99.99*30
$GPGSV,4,1,16,01,28,298,,03,03,322,,04,01,280,,08,01,228,*7E
$GPGSV,4,2,16,10,38,116,06,11,21,257,,16,22,181,,20,09,134,*73
$GPGSV,4,3,16,21,46,250,,22,24,326,,23,12,129,,25,09,049,*75
$GPGSV,4,4,16,26,47,147,18,27,07,198,,31,59,008,14,32,28,039,08*7A
$GPGLL,,,,,101155.00,V,N*4B
$GPRMC,101156.00,V,,,,,,,181020,,,N*75
$GPVTG,,,,,,,,,N*30
$GPGGA,101156.00,,,,,0,00,99.99,,,,,,*64
99.99,99.99*30
$GPGSV,4,1,16,01,28,298,,03,03,322,,04,01,280,,08,01,228,*7E
$GPGSV,4,2,16,10,38,116,08,11,21,257,,16,22,181,,20,09,134,*7D
$GPGSV,4,3,16,21,46,250,,22,24,326,,23,12,129,,25,09,049,*75
$GPGSV,4,4,16,26,47,147,18,27,07,198,,31,59,008,15,32,28,039,08*7B
$GPGLL,,,,,101156.00,V,N*48
$GPRMC,101157.00,V,,,,,,,181020,,,N*74
$GPVTG,,,,,,,,,N*30
$GPGGA,101157.00,,,,,0,00,99.99,,,,,,*65
$GPGSA,A,1,,,,,,,,,,,,,99.99,99.99,99.99*30
$GPGSV,4,1,16,01,28,298,,03,03,322,,04,01,280,,08,01,228,*7E
$GPGSV,4,2,16,10,38,116,08,11,21,257,,16,22,181,,20,08,134,*7C
$GPGSV,4,3,16,21,46,250,,22,24,326,,23,12,129,,25,09,049,*75
$GPGSV,4,4,16,26,47,147,18,27,07,198,,31,59,008,16,32,28,039,08*78
$GPGLL,,,,,101157.00,V,N*49
$GPRMC,101158.00,V,,,,,,,181020,,,N*7B
$GPVTG,,,,,,,,,N*30
$GPGGA,101158.00,,,,,0,00,99.99,,,,,,*6A
$GPGSA,A,1,,,,,,,,,,,,,99.99,99.99,99.99*30
$GPGSV,4,1,16,01,28,298,,03,03,322,,04,01,280,,08,01,228,*7E
$GPGSV,4,2,16,10,38,116,08,11,21,257,,16,22,181,,20,08,134,*7C
$GPGSV,4,3,16,21,46,250,,22,24,326,,23,12,129,,25,09,049,*75
$GPGSV,4,4,16,26,47,147,18,27,07,198,,31,59,008,15,32,28,039,08*7B
$GPGLL,,,,,101158.00,V,N*46
$GPRMC,101159.00,V,,,,,,,181020,,,N*7A
$GPVTG,,,,,,,,,N*30
$GPGGA,101159.00,,,,,0,00,99.99,,,,,,*6B
$GPGSA,A,1,,,,,,,,,,,,,99.99,99.99,99.99*30
$GPGSV,4,1,16,01,28,298,,03,03,322,,04,01,280,,08,01,228,*7E
$GPGSV,4,2,16,10,38,116,08,11,21,257,,16,22,181,,20,08,134,*7C
$GPGSV,4,3,16,21,46,250,,22,24,326,,23,12,129,,25,09,049,*75
$GPGSV,4,4,16,26,47,147,17,27,07,198,,31,59,008,14,32,28,039,08*75
$GPGLL,,,,,101159.00,V,N*47
$GPRMC,101200.00,V,,,,,,,181020,,,N*75
$GPVTG,,,,,,,,,N*30
$GPGGA,101200.00,,,,,0,00,99.99,,,,,,*64
$GPGSA,A,1,,,,,,,,,,,,,99.99,99.99,99.99*30
$GPGSV,4,1,16,01,28,298,,03,03,322,,04,01,280,,08,01,228,*7E
$GPGSV,4,2,16,10,38,116,08,11,21,257,,16,22,181,,20,08,134,*7C
$GPGSV,4,3,16,21,46,250,,22,24,326,,23,12,129,,25,09,049,*75
$GPGSV,4,4,16,26,47,147,17,27,07,198,,31,59,008,14,32,28,039,08*75
$GPGLL,,,,,101200.00,V,N*48
$GPRMC,101201.00,V,,,,,,,181020,,,N*74
$GPVTG,,,,,,,,,N*30
$GPGGA,101201.00,,,,,0,00,99.99,,,,,,*65
$GPGSA,A,1,,,,,,,,,,,,,99.99,99.99,99.99*30
$GPGSV,4,1,16,01,28,298,,03,03,322,,04,01,280,,08,01,228,*7E
$GPGSV,4,2,16,10,38,116,08,11,21,257,,16,22,181,,20,08,134,*7C
$GPGSV,4,3,16,21,46,250,,22,24,326,,23,12,129,,25,09,049,*75
$GPGSV,4,4,16,26,47,147,15,27,07,198,,31,59,008,14,32,28,039,08*77
$GPGLL,,,,,101201.00,V,N*49
$GPRMC,101202.00,V,,,,,,,181020,,,N*77
$GPVTG,,,,,,,,,N*30
$GPGGA,101202.00,,,,,0,00,99.99,,,,,,*66
$GPGSA,A,1,,,,,,,,,,,,,99.99,99.99,99.99*30
$GPGSV,4,1,16,01,28,298,,03,03,322,,04,01,280,,08,01,228,*7E
,134,*73
$GPGSV,4,3,16,21,46,250,,22,24,326,,23,12,129,,25,09,049,*75
$GPGSV,4,4,16,26,47,147,14,27,07,198,,31,59,008,10,32,28,039,10*7B
$GPGLL,,,,,101202.00,V,N*4A
$GPRMC,101203.00,V,,,,,,,181020,,,N*76
$GPVTG,,,,,,,,,N*30
$GPGGA,101203.00,,,,,0,00,99.99,,,,,,*67
$GPGSA,A,1,,,,,,,,,,,,,99.99,99.99,99.99*30
$GPGSV,4,1,16,01,28,298,,03,03,322,,04,01,280,,08,01,228,*7E
$GPGSV,4,2,16,10,38,116,07,11,21,257,,16,22,181,,20,08,134,*73
$GPGSV,4,3,16,21,46,250,,22,24,326,,23,12,129,,25,09,049,*75
$GPGSV,4,4,16,26,48,146,14,27,07,198,,31,59,008,08,32,28,039,10*7C
$GPGLL,,,,,101203.00,V,N*4B
$GPRMC,101204.00,V,,,,,,,181020,,,N*71
$GPVTG,,,,,,,,,N*30
$GPGGA,101204.00,,,,,0,00,99.99,,,,,,*60
$GPGSA,A,1,,,,,,,,,,,,,99.99,99.99,99.99*30
$GPGSV,4,1,16,01,28,298,,03,03,322,,04,01,280,,08,01,228,*7E
$GPGSV,4,2,16,10,38,116,,11,21,257,,16,22,181,,20,08,134,*74
$GPGSV,4,3,16,21,46,250,,22,24,326,,23,12,129,,25,09,049,*75
$GPGSV,4,4,16,26,48,146,14,27,07,198,,31,59,008,10,32,28,039,10*75
$GPGLL,,,,,101204.00,V,N*4C
$GPRMC,101205.00,V,,,,,,,181020,,,N*70
$GPVTG,,,,,,,,,N*30
$GPGGA,101205.00,,,,,0,00,99.99,,,,,,*61
$GPGSA,A,1,,,,,,,,,,,,,99.99,99.99,99.99*30
$GPGSV,4,1,16,01,28,298,,03,03,322,,04,01,280,,08,01,228,*7E
$GPGSV,4,2,16,10,38,116,,11,21,257,,16,22,181,,20,08,134,*74
$GPGSV,4,3,16,21,46,250,,22,24,326,,23,12,129,,25,09,049,*75
$GPGSV,4,4,16,26,48,146,14,27,07,198,,31,59,008,13,32,28,039,10*76
$GPGLL,,,,,101205.00,V,N*4D
$GPRMC,101206.00,V,,,,,,,181020,,,N*73
$GPVTG,,,,,,,,,N*30
$GPGGA,101206.00,,,,,0,00,99.99,,,,,,*62
$GPGSA,A,1,,,,,,,,,,,,,99.99,99.99,99.99*30
$GPGSV,4,1,16,01,28,298,,03,03,322,,04,01,280,,08,01,228,*7E
$GPGSV,4,2,16,10,38,116,,11,21,257,,16,22,181,,20,08,134,*74
$GPGSV,4,3,16,21,46,250,,22,24,326,,23,12,129,,25,09,049,*75
$GPGSV,4,4,16,26,48,146,15,27,07,198,,31,59,008,13,32,28,039,10*77
$GPGLL,,,,,101206.00,V,N*4E
$GPRMC,101207.00,V,,,,,,,181020,,,N*72
$GPVTG,,,,,,,,,N*30
$GPGGA,101207.00,,,,,0,00,99.99,,,,,,*63
$GPGSA,A,1,,,,,,,,,,,,,99.99,99.99,99.99*30
$GPGSV,4,1,16,01,28,298,,03,03,322,,04,01,280,,08,01,228,*7E
$GPGSV,4,2,16,10,38,116,,11,21,257,,16,22,181,20,20,08,134,*76
$GPGSV,4,3,16,21,46,250,,22,24,326,,23,12,129,,25,09,049,*75
$GPGSV,4,4,16,26,48,146,16,27,07,198,,31,59,008,,32,28,039,*77
$GPGLL,,,,,101207.00,V,N*4F
$GPRMC,101208.00,V,,,,,,,181020,,,N*7D
$GPVTG,,,,,,,,,N*30
$GPGGA,101208.00,,,,,0,00,99.99,,,,,,*6C
$GPGSA,A,1,,,,,,,,,,,,,99.99,99.99,99.99*30
$GPGSV,4,1,16,01,28,298,,03,03,322,,04,01,280,,08,01,228,*7E
$GPGSV,4,2,16,10,38,116,13,11,21,257,,16,22,181,17,20,08,134,*70
$GPGSV,4,3,16,21,46,250,,22,24,326,,23,12,129,,25,09,049,*75
$GPGSV,4,4,16,26,48,146,14,27,07,198,,31,58,009,,32,28,039,*75
$GPGLL,,,,,101208.00,V,N*40
$GPRMC,101209.00,V,,,,,,,181020,,,N*7C
$GPVTG,,,,,,,,,N*30
$GPGGA,101209.00,,,,,0,00,99.99,,,,,,*6D
$GPGSA,A,1,,,,,,,,,,,,,99.99,99.99,99.99*30
$GPGSV,4,1,16,01,28,298,,03,03,322,,04,01,280,,08,01,228,*7E
$GPGSV,4,2,16,10,38,116,09,11,21,257,,16,22,181,15,20,08,134,*79
$GPGSV,4,3,16,21,46,250,,22,24,326,,23,12,129,,25,09,049,*75
$GPGSV,4,4,16,26,48,146,13,27,07,198,,31,58,009,,32,28,040,*7C
$GPGLL,,,,,101209.00,V,N*41
$GPRMC,101210.00,V,,,,,,,181020,,,N*74
$GPVTG,,,,,,,,,N*30
$GPGGA,101210.00,,,,,0,00,99.99,,,,,,*65
$GPGSA,A,1,,,,,,,,,,,,,99.99,99.99,99.99*30
$GPGSV,4,1,16,01,28,298,,03,03,322,,04,01,280,,08,01,228,*7E
$GPGSV,4,2,16,10,38,116,21,11,21,257,,16,22,181,12,20,08,134,*74
$GPGSV,4,3,16,21,46,250,,22,24,326,,23,12,129,,25,09,049,*75
$GPGSV,4,4,16,26,48,146,16,27,07,198,,31,58,009,16,32,28,040,*7E
$GPGLL,,,,,101210.00,V,N*49
$GPRMC,101211.00,V,,,,,,,181020,,,N*75
$GPVTG,,,,,,,,,N*30
$GPGGA,101211.00,,,,,0,00,99.99,,,,,,*64
$GPGSA,A,1,,,,,,,,,,,,,99.99,99.99,99.99*30
$GPGSV,4,1,16,01,28,298,,03,03,322,,04,01,280,,08,01,228,*7E
$GPGSV,4,2,16,10,38,116,19,11,21,257,,16,22,181,09,20,08,134,*75
$GPGSV,4,3,16,21,46,250,,22,24,326,,23,12,129,,25,09,049,*75
$GPGSV,4,4,16,26,48,146,17,27,07,198,,31,58,009,14,32,28,040,14*78
$GPGLL,,,,,101211.00,V,N*48
$GPRMC,101212.00,V,,,,,,,181020,,,N*76
$GPVTG,,,,,,,,,N*30
$GPGGA,101212.00,,,,,0,00,99.99,,,,,,*67
$GPGSA,A,1,,,,,,,,,,,,,99.99,99.99,99.99*30
$GPGSV,4,1,16,01,28,298,,03,03,322,,04,01,280,,08,01,228,*7E
$GPGSV,4,2,16,10,38,116,16,11,21,257,,16,22,181,11,20,08,134,*73
$GPGSV,4,3,16,21,46,250,,22,24,326,,23,12,129,,25,09,049,*75
$GPGSV,4,4,16,26,48,146,19,27,07,198,,31,58,009,12,32,28,040,15*71
$GPGLL,,,,,101212.00,V,N*4B
$GPRMC,101213.00,V,,,,,,,181020,,,N*77
$GPVTG,,,,,,,,,N*30
$GPGGA,101213.00,,,,,0,00,99.99,,,,,,*66
$GPGSA,A,1,,,,,,,,,,,,,99.99,99.99,99.99*30
$GPGSV,4,1,16,01,28,298,,03,03,322,,04,01,280,,08,01,228,*7E
$GPGSV,4,2,16,10,38,116,14,11,21,257,,16,22,181,11,20,08,134,*71
$GPGSV,4,3,16,21,46,250,,22,24,326,,23,12,129,,25,09,049,*75
$GPGSV,4,4,16,26,48,146,19,27,07,198,,31,58,009,10,32,28,040,15*73
$GPGLL,,,,,101213.00,V,N*4A
$GPRMC,101214.00,V,,,,,,,181020,,,N*70
$GPVTG,,,,,,,,,N*30
$GPGGA,101214.00,,,,,0,00,99.99,,,,,,*61
$GPGSA,A,1,,,,,,,,,,,,,99.99,99.99,99.99*30
$GPGSV,4,1,16,01,28,298,,03,03,322,,04,01,280,,08,01,228,*7E
$GPGSV,4,2,16,10,38,116,15,11,21,257,,16,22,181,10,20,08,134,*71
$GPGSV,4,3,16,21,46,250,,22,24,326,,23,12,129,,25,09,049,*75
$GPGSV,4,4,16,26,48,146,18,27,07,198,,31,58,009,08,32,28,040,15*7B
$GPGLL,,,,,101214.00,V,N*4D
$GPRMC,101215.00,V,,,,,,,181020,,,N*71
$GPVTG,,,,,,,,,N*30
$GPGGA,101215.00,,,,,0,00,99.99,,,,,,*60
$GPGSA,A,1,,,,,,,,,,,,,99.99,99.99,99.99*30
$GPGSV,4,1,16,01,28,298,,03,03,322,,04,01,280,,08,01,228,*7E
$GPGSV,4,2,16,10,38,116,15,11,21,257,,16,22,181,,20,08,134,*70
$GPGSV,4,3,16,21,46,250,,22,24,326,,23,12,129,,25,09,049,*75
$GPGSV,4,4,16,26,48,146,18,27,07,198,,31,58,009,08,32,28,040,*7F
$GPGLL,,,,,101215.00,V,N*4C
$GPRMC,101216.00,V,,,,,,,181020,,,N*72
$GPVTG,,,,,,,,,N*30
$GPGGA,101216.00,,,,,0,00,99.99,,,,,,*63
$GPGSA,A,1,,,,,,,,,,,,,99.99,99.99,99.99*30
$GPGSV,4,1,16,01,28,298,,03,03,322,,04,01,280,,08,01,228,*7E
$GPGSV,4,2,16,10,38,116,14,11,21,257,,16,22,181,,20,08,134,*71
$GPGSV,4,3,16,21,46,250,,22,24,326,,23,12,129,,25,09,049,*75
$GPGSV,4,4,16,26,48,146,19,27,07,198,,31,58,009,10,32,28,040,*77
$GPGLL,,,,,101216.00,V,N*4F
$GPRMC,101217.00,V,,,,,,,181020,,,N*73
$GPVTG,,,,,,,,,N*30
$GPGGA,101217.00,,,,,0,00,99.99,,,,,,*62
$GPGSA,A,1,,,,,,,,,,,,,99.99,99.99,99.99*30
$GPGSV,4,1,16,01,28,298,,03,03,322,,04,01,280,,08,01,228,*7E
$GPGSV,4,2,16,10,38,116,13,11,21,257,,16,22,181,,20,08,134,*76
$GPGSV,4,3,16,21,46,250,,22,24,326,,23,12,129,,25,09,049,*75
$GPGSV,4,4,16,26,48,146,18,27,07,198,,31,58,009,11,32,28,040,*77
$GPGLL,,,,,101217.00,V,N*4E
$GPRMC,101218.00,V,,,,,,,181020,,,N*7C
$GPVTG,,,,,,,,,N*30
$GPGGA,101218.00,,,,,0,00,99.99,,,,,,*6D
$GPGSA,A,1,,,,,,,,,,,,,99.99,99.99,99.99*30
$GPGSV,4,1,16,01,28,298,,03,03,322,,04,01,280,,08,01,228,*7E
$GPGSV,4,2,16,10,38,116,13,11,21,257,,16,22,181,,20,08,134,*76
$GPGSV,4,3,16,21,46,250,,22,24,326,,23,12,129,,25,09,049,*75
$GPGSV,4,4,16,26,48,146,18,27,07,198,,31,58,009,11,32,28,040,*77
$GPGLL,,,,,101218.00,V,N*41
$GPRMC,101219.00,V,,,,,,,181020,,,N*7D
$GPVTG,,,,,,,,,N*30
$GPGGA,101219.00,,,,,0,00,99.99,,,,,,*6C
$GPGSA,A,1,,,,,,,,,,,,,99.99,99.99,99.99*30
$GPGSV,4,1,16,01,28,298,,03,03,322,,04,01,280,,08,01,228,*7E
$GPGSV,4,2,16,10,38,116,12,11,21,257,,16,22,181,,20,08,134,*77
$GPGSV,4,3,16,21,46,250,,22,24,326,,23,12,129,,25,09,049,*75
$GPGSV,4,4,16,26,48,146,19,27,07,198,,31,58,009,12,32,28,040,*75
$GPGLL,,,,,101219.00,V,N*40
$GPRMC,101220.00,V,,,,,,,181020,,,N*77
$GPVTG,,,,,,,,,N*30
$GPGGA,101220.00,,,,,0,00,99.99,,,,,,*66
$GPGSA,A,1,,,,,,,,,,,,,99.99,99.99,99.99*30
$GPGSV,4,1,16,01,28,298,,03,03,322,,04,01,280,,08,01,228,*7E
$GPGSV,4,2,16,10,38,116,14,11,21,257,,16,22,181,,20,08,134,*71
$GPGSV,4,3,16,21,46,250,,22,24,326,,23,12,129,,25,09,049,*75
$GPGSV,4,4,16,26,48,146,18,27,07,198,,31,58,009,12,32,28,040,*74
$GPGLL,,,,,101220.00,V,N*4A
$GPRMC,101221.00,V,,,,,,,181020,,,N*76
$GPVTG,,,,,,,,,N*30
$GPGGA,101221.00,,,,,0,00,99.99,,,,,,*67
$GPGSA,A,1,,,,,,,,,,,,,99.99,99.99,99.99*30
$GPGSV,4,1,16,01,28,298,,03,03,322,,04,01,280,,08,01,228,*7E
$GPGSV,4,2,16,10,38,116,13,11,21,257,,16,22,181,,20,08,134,*76
$GPGSV,4,3,16,21,46,250,,22,24,326,,23,12,129,,25,09,049,*75
$GPGSV,4,4,16,26,48,146,18,27,07,198,,31,58,009,09,32,28,040,*7E
$GPGLL,,,,,101221.00,V,N*4B
$GPRMC,101222.00,V,,,,,,,181020,,,N*75
$GPVTG,,,,,,,,,N*30
$GPGGA,101222.00,,,,,0,00,99.99,,,,,,*64
$GPGSA,A,1,,,,,,,,,,,,,99.99,99.99,99.99*30
$GPGSV,4,1,16,01,28,298,,03,03,322,,04,01,280,,08,01,228,*7E
$GPGSV,4,2,16,10,38,116,12,11,21,257,,16,22,181,,20,08,134,*77
$GPGSV,4,3,16,21,46,250,,22,24,326,,23,12,129,,25,09,049,*75
$GPGSV,4,4,16,26,48,146,17,27,07,198,,31,58,009,08,32,28,040,18*79
$GPGLL,,,,,101222.00,V,N*48
$GPRMC,101223.00,V,,,,,,,181020,,,N*74
$GPVTG,,,,,,,,,N*30
$GPGGA,101223.00,,,,,0,00,99.99,,,,,,*65
$GPGSA,A,1,,,,,,,,,,,,,99.99,99.99,99.99*30
$GPGSV,4,1,16,01,28,298,20,03,03,322,,04,01,280,,08,01,228,*7C
$GPGSV,4,2,16,10,38,116,10,11,21,257,,16,22,181,,20,08,134,*75
$GPGSV,4,3,16,21,46,250,,22,24,326,,23,12,129,,25,09,049,*75
$GPGSV,4,4,16,26,48,146,16,27,07,198,,31,58,009,08,32,28,040,15*75
$GPGLL,,,,,101223.00,V,N*49
$GPRMC,101224.00,V,,,,,,,181020,,,N*73
$GPVTG,,,,,,,,,N*30
$GPGGA,101224.00,,,,,0,00,99.99,,,,,,*62
$GPGSA,A,1,,,,,,,,,,,,,99.99,99.99,99.99*30
$GPGSV,4,1,16,01,28,298,,03,03,322,,04,01,280,,08,01,228,*7E
$GPGSV,4,2,16,10,38,116,12,11,21,257,,16,22,181,,20,08,134,*77
$GPGSV,4,3,16,21,46,250,,22,24,326,,23,12,129,,25,09,049,*75
$GPGSV,4,4,16,26,48,146,18,27,07,198,,31,58,009,11,32,28,040,13*75
$GPGLL,,,,,101224.00,V,N*4E
$GPRMC,101225.00,V,,,,,,,181020,,,N*72
$GPVTG,,,,,,,,,N*30
$GPGGA,101225.00,,,,,0,00,99.99,,,,,,*63
$GPGSA,A,1,,,,,,,,,,,,,99.99,99.99,99.99*30
$GPGSV,4,1,16,01,28,298,,03,03,322,,04,01,280,,08,01,228,*7E
6,10,38,116,13,11,21,257,,16,22,181,,20,08,134,*76
$GPGSV,4,3,16,21,46,250,,22,24,326,,23,12,129,,25,09,049,*75
$GPGSV,4,4,16,26,48,146,17,27,07,198,,31,58,009,10,32,28,040,12*7A
$GPGLL,,,,,101225.00,V,N*4F
$GPRMC,101226.00,V,,,,,,,181020,,,N*71
$GPVTG,,,,,,,,,N*30
$GPGGA,101226.00,,,,,0,00,99.99,,,,,,*60
$GPGSA,A,1,,,,,,,,,,,,,99.99,99.99,99.99*30
$GPGSV,4,1,16,01,28,298,,03,03,322,,04,01,280,,08,01,228,*7E
$GPGSV,4,2,16,10,38,116,13,11,21,257,,16,22,181,,20,08,134,*76
$GPGSV,4,3,16,21,46,250,,22,24,326,,23,12,129,,25,09,049,*75
$GPGSV,4,4,16,26,48,146,18,27,07,198,,31,58,009,11,32,28,040,12*74
$GPGLL,,,,,101226.00,V,N*4C
$GPRMC,101227.00,V,,,,,,,181020,,,N*70
$GPVTG,,,,,,,,,N*30
$GPGGA,101227.00,,,,,0,00,99.99,,,,,,*61
$GPGSA,A,1,,,,,,,,,,,,,99.99,99.99,99.99*30
$GPGSV,4,1,16,01,28,298,,03,03,322,,04,01,280,28,08,01,228,*74
$GPGSV,4,2,16,10,38,116,13,11,21,257,,16,22,181,,20,08,134,*76
$GPGSV,4,3,16,21,46,250,,22,24,326,,23,12,129,,25,09,049,*75
$GPGSV,4,4,16,26,48,146,18,27,07,198,,31,58,009,13,32,28,040,12*76
$GPGLL,,,,,101227.00,V,N*4D
$GPRMC,101228.00,V,,,,,,,181020,,,N*7F
$GPVTG,,,,,,,,,N*30
$GPGGA,101228.00,,,,,0,04,4.57,,,,,,*5C
$GPGSA,A,1,31,32,26,10,,,,,,,,,4.68,4.57,1.00*0B
$GPGSV,4,1,16,01,28,298,,03,03,322,,04,01,280,,08,01,228,*7E
$GPGSV,4,2,16,10,38,116,14,11,21,257,,16,22,181,,20,08,134,*71
$GPGSV,4,3,16,21,46,250,,22,24,326,,23,12,129,,25,09,049,*75
$GPGSV,4,4,16,26,48,146,17,27,07,198,,31,58,009,13,32,28,040,12*79
$GPGLL,,,,,101228.00,V,N*42
$GPRMC,101229.00,V,,,,,,,181020,,,N*7E
$GPVTG,,,,,,,,,N*30
$GPGGA,101229.00,,,,,0,04,7.43,,,,,,*5B
$GPGSA,A,1,31,32,26,10,,,,,,,,,13.60,7.43,11.39*08
$GPGSV,4,1,16,01,28,298,,03,03,322,,04,01,280,,08,01,228,*7E
$GPGSV,4,2,16,10,38,116,16,11,21,257,,16,22,181,,20,08,134,*73
$GPGSV,4,3,16,21,46,250,,22,24,326,,23,12,129,,25,09,049,*75
$GPGSV,4,4,16,26,48,146,17,27,07,198,,31,58,009,14,32,28,040,12*7E
$GPGLL,,,,,101229.00,V,N*43
$GPRMC,101230.00,V,,,,,,,181020,,,N*76
$GPVTG,,,,,,,,,N*30
$GPGGA,101230.00,,,,,0,04,7.44,,,,,,*54
$GPGSA,A,1,31,32,26,10,,,,,,,,,13.62,7.44,11.41*02
$GPGSV,4,1,16,01,28,298,,03,03,322,,04,01,280,,08,01,228,*7E
$GPGSV,4,2,16,10,38,116,16,11,21,257,24,16,22,181,,20,08,134,*75
$GPGSV,4,3,16,21,46,250,,22,24,326,,23,12,129,,25,09,049,*75
$GPGSV,4,4,16,26,48,146,17,27,07,198,,31,58,009,16,32,28,040,12*7C
$GPGLL,,,,,101230.00,V,N*4B
$GPRMC,101231.00,V,,,,,,,181020,,,N*77
$GPVTG,,,,,,,,,N*30
$GPGGA,101231.00,,,,,0,04,7.45,,,,,,*54
$GPGSA,A,1,31,32,26,10,,,,,,,,,13.64,7.45,11.43*07
$GPGSV,4,1,16,01,28,298,,03,03,322,,04,01,280,,08,01,228,*7E
$GPGSV,4,2,16,10,38,116,15,11,21,257,,16,22,181,,20,08,134,*70
$GPGSV,4,3,16,21,46,250,,22,24,326,,23,12,129,,25,09,049,*75
$GPGSV,4,4,16,26,48,146,17,27,07,198,,31,58,009,16,32,28,040,12*7C
$GPGLL,,,,,101231.00,V,N*4A
$GPRMC,101232.00,V,,,,,,,181020,,,N*74
$GPVTG,,,,,,,,,N*30
$GPGGA,101232.00,,,,,0,04,7.46,,,,,,*54
$GPGSA,A,1,31,32,26,10,,,,,,,,,13.66,7.46,11.44*01
$GPGSV,4,1,16,01,28,298,,03,03,322,,04,01,280,,08,01,228,*7E
$GPGSV,4,2,16,10,38,116,15,11,21,257,,16,22,181,20,20,08,134,*72
$GPGSV,4,3,16,21,46,250,,22,24,326,,23,12,129,,25,09,049,*75
$GPGSV,4,4,16,26,48,146,18,27,07,198,,31,58,009,16,32,28,040,12*73
$GPGLL,,,,,101232.00,V,N*49
$GPRMC,101233.00,V,,,,,,,181020,,,N*75
$GPVTG,,,,,,,,,N*30
$GPGGA,101233.00,,,,,0,00,99.99,,,,,,*64
$GPGSA,A,1,,,,,,,,,,,,,99.99,99.99,99.99*30
$GPGSV,4,1,16,01,28,298,,03,03,322,,04,01,280,,08,01,228,*7E
$GPGSV,4,2,16,10,38,116,15,11,21,257,,16,22,181,,20,08,134,24*76
$GPGSV,4,3,16,21,46,250,,22,24,326,,23,12,129,,25,09,049,*75
$GPGSV,4,4,16,26,48,146,17,27,07,198,,31,58,009,15,32,28,040,08*74
$GPGLL,,,,,101233.00,V,N*48
$GPRMC,101234.00,V,,,,,,,181020,,,N*72
$GPVTG,,,,,,,,,N*30
$GPGGA,101234.00,,,,,0,00,99.99,,,,,,*63
$GPGSA,A,1,,,,,,,,,,,,,99.99,99.99,99.99*30
$GPGSV,4,1,16,01,28,298,,03,03,322,,04,01,280,,08,01,228,*7E
$GPGSV,4,2,16,10,38,116,15,11,21,257,,16,22,181,,20,08,134,*70
$GPGSV,4,3,16,21,46,250,,22,24,326,25,23,12,129,,25,09,049,*72
$GPGSV,4,4,16,26,48,146,17,27,07,198,,31,58,009,16,32,28,040,08*77
$GPGLL,,,,,101234.00,V,N*4F
$GPRMC,101235.00,V,,,,,,,181020,,,N*73
$GPVTG,,,,,,,,,N*30
$GPGGA,101235.00,,,,,0,00,99.99,,,,,,*62
$GPGSA,A,1,,,,,,,,,,,,,99.99,99.99,99.99*30
$GPGSV,4,1,16,01,28,298,,03,03,322,,04,01,280,,08,01,228,*7E
$GPGSV,4,2,16,10,38,116,16,11,21,257,,16,22,181,,20,08,134,*73
$GPGSV,4,3,16,21,46,250,,22,24,326,,23,12,129,20,25,09,049,*77
5,32,28,040,*7D
$GPGLL,,,,,101235.00,V,N*4E
$GPRMC,101236.00,V,,,,,,,181020,,,N*70
$GPVTG,,,,,,,,,N*30
$GPGGA,101236.00,,,,,0,00,99.99,,,,,,*61
$GPGSA,A,1,,,,,,,,,,,,,99.99,99.99,99.99*30
$GPGSV,4,1,16,01,28,298,,03,03,322,,04,01,280,,08,01,228,*7E
$GPGSV,4,2,16,10,38,116,17,11,21,257,,16,22,181,,20,08,134,*72
$GPGSV,4,3,16,21,46,250,,22,24,326,,23,12,129,,25,09,049,*75
$GPGSV,4,4,16,26,48,146,16,27,07,198,,31,58,009,15,32,28,040,*7D
$GPGLL,,,,,101236.00,V,N*4D
$GPRMC,101237.00,A,1247.88314,N,08013.48830,E,8.147,,181020,,,A*7D
$GPVTG,,T,,M,8.147,N,15.087,K,A*12
$GPGGA,101237.00,1247.88314,N,08013.48830,E,1,03,3.88,23.2,M,-87.6,M,,*46
$GPGSA,A,2,31,26,10,,,,,,,,,,4.01,3.88,1.00*03
$GPGSV,4,1,16,01,28,298,,03,03,322,,04,01,280,,08,01,228,*7E
$GPGSV,4,2,16,10,38,116,17,11,21,257,,16,22,181,,20,08,134,*72
$GPGSV,4,3,16,21,46,250,,22,24,326,,23,12,129,,25,09,049,*75
$GPGSV,4,4,16,26,48,146,18,27,07,198,,31,58,009,16,32,28,040,*70
$GPGLL,1247.88314,N,08013.48830,E,101237.00,A,A*64
$GPRMC,101238.00,A,1247.88454,N,08013.48289,E,7.632,,181020,,,A*73
$GPVTG,,T,,M,7.632,N,14.134,K,A*10
$GPTXT,01,01,02,u-blox ag - www.u-blox.com*50
$GPTXT,01,01,02,HW  UBX-G60xx  00040007 FF7FFFFFp*53
$GPTXT,01,01,02,ROM CORE 7.03 (45969) Mar 17 2011 16:18:34*59
$GPTXT,01,01,02,ANTSUPERV=AC SD PDoS SR*20
$GPTXT,01,01,02,ANTSTATUS=DONTKNOW*33
$GPRMC,101243.34,V,,,,,,,181020,,,N*75
$GPVTG,,,,,,,,,N*30
$GPGGA,101243.34,,,,,0,00,99.99,,,,,,*64
$GPGSA,A,1,,,,,,,,,,,,,99.99,99.99,99.99*30
$GPGSV,4,1,16,01,29,297,,03,04,322,,04,01,280,,08,01,228,*77
$GPGSV,4,2,16,10,38,117,,11,21,257,,16,22,181,,20,08,134,*75
$GPGSV,4,3,16,21,46,249,,22,24,326,,23,11,130,,25,09,049,*76
$GPGSV,4,4,16,26,48,146,,27,07,197,,31,58,009,,32,28,040,*71
$GPGLL,,,,,101243.34,V,N*48
$GPRMC,101244.00,V,,,,,,,181020,,,N*75
$GPVTG,,,,,,,,,N*30
$GPGGA,101244.00,,,,,0,00,99.99,,,,,,*64
$GPGSA,A,1,,,,,,,,,,,,,99.99,99.99,99.99*30
$GPGSV,4,1,16,01,29,297,,03,04,322,,04,01,280,,08,01,228,*77
$GPGSV,4,2,16,10,38,117,,11,21,257,,16,22,181,,20,08,134,*75
$GPGSV,4,3,16,21,46,249,20,22,24,326,23,23,11,130,,25,09,049,*75
$GPGSV,4,4,16,26,48,146,19,27,07,197,,31,58,009,24,32,28,040,*7F
$GPGLL,,,,,101244.00,V,N*48
$GPTXT,01,01,02,ANTSTATUS=INIT*25
$GPRMC,101245.00,V,,,,,,,181020,,,N*74
$GPVTG,,,,,,,,,N*30
$GPGGA,101245.00,,,,,0,00,99.99,,,,,,*65
$GPGSA,A,1,,,,,,,,,,,,,99.99,99.99,99.99*30
$GPGSV,4,1,16,01,29,297,,03,04,322,,04,01,280,,08,01,228,*77
$GPGSV,4,2,16,10,38,117,,11,21,257,,16,22,181,,20,08,134,*75
$GPGSV,4,3,16,21,46,249,16,22,24,326,18,23,11,130,,25,09,049,*78
$GPGSV,4,4,16,26,48,146,15,27,07,197,,31,58,009,21,32,28,040,*76
$GPGLL,,,,,101245.00,V,N*49
$GPTXT,01,01,02,ANTSTATUS=OK*3B
$GPRMC,101246.00,V,,,,,,,181020,,,N*77
$GPVTG,,,,,,,,,N*30
$GPGGA,101246.00,,,,,0,00,99.99,,,,,,*66
$GPGSA,A,1,,,,,,,,,,,,,99.99,99.99,99.99*30
$GPGSV,4,1,16,01,29,297,,03,04,322,,04,01,280,,08,01,228,*77
$GPGSV,4,2,16,10,38,117,,11,21,257,,16,22,181,,20,08,134,*75
$GPGSV,4,3,16,21,46,249,12,22,24,326,11,23,11,130,,25,09,049,*75
$GPGSV,4,4,16,26,48,146,10,27,07,197,,31,58,009,21,32,28,040,*73
$GPGLL,,,,,101246.00,V,N*4A
$GPRMC,101247.00,V,,,,,,,181020,,,N*76
$GPVTG,,,,,,,,,N*30
$GPGGA,101247.00,,,,,0,00,99.99,,,,,,*67
$GPGSA,A,1,,,,,,,,,,,,,99.99,99.99,99.99*30
$GPGSV,4,1,16,01,29,297,,03,04,322,,04,01,280,,08,01,228,*77
$GPGSV,4,2,16,10,38,117,,11,21,257,,16,22,181,,20,08,134,*75
$GPGSV,4,3,16,21,46,249,08,22,24,326,,23,11,130,,25,09,049,*7E
$GPGSV,4,4,16,26,48,146,,27,07,197,,31,58,009,21,32,28,040,*72
$GPGLL,,,,,101247.00,V,N*4B
$GPRMC,101248.00,V,,,,,,,181020,,,N*79
$GPVTG,,,,,,,,,N*30
$GPGGA,101248.00,,,,,0,00,99.99,,,,,,*68
$GPGSA,A,1,,,,,,,,,,,,,99.99,99.99,99.99*30
$GPGSV,4,1,16,01,29,297,,03,04,322,,04,01,280,,08,01,228,*77
$GPGSV,4,2,16,10,38,117,,11,21,257,,16,22,181,,20,08,134,*75
$GPGSV,4,3,16,21,46,249,,22,24,326,,23,11,130,,25,09,049,*76
$GPGSV,4,4,16,26,48,146,,27,07,197,,31,58,009,21,32,28,040,*72
$GPGLL,,,,,101248.00,V,N*44
$GPRMC,101249.00,V,,,,,,,181020,,,N*78
$GPVTG,,,,,,,,,N*30
$GPGGA,101249.00,,,,,0,00,99.99,,,,,,*69
$GPGSA,A,1,,,,,,,,,,,,,99.99,99.99,99.99*30
$GPGSV,4,1,16,01,29,297,,03,04,322,,04,01,280,,08,01,228,*77
$GPGSV,4,2,16,10,38,117,,11,21,257,,16,22,181,,20,08,134,*75
$GPGSV,4,3,16,21,46,249,,22,24,326,,23,11,130,,25,09,049,*76
$GPGSV,4,4,16,26,48,146,,27,07,197,,31,58,009,21,32,28,040,*72
$GPGLL,,,,,101249.00,V,N*45
$GPRMC,101250.00,V,,,,,,,181020,,,N*70
$GPVTG,,,,,,,,,N*30
$GPGGA,101250.00,,,,,0,00,99.99,,,,,,*61
$GPGSA,A,1,,,,,,,,,,,,,99.99,99.99,99.99*30
$GPGSV,4,1,16,01,29,297,,03,04,322,,04,01,280,,08,01,228,*77
$GPGSV,4,2,16,10,38,117,,11,21,257,,16,22,181,,20,08,134,*75
$GPGSV,4,3,16,21,46,249,,22,24,326,,23,11,130,,25,09,049,*76
$GPGSV,4,4,16,26,48,146,,27,07,197,,31,58,009,21,32,28,040,*72
$GPGLL,,,,,101250.00,V,N*4D
$GPRMC,101251.00,V,,,,,,,181020,,,N*71
$GPVTG,,,,,,,,,N*30
$GPGGA,101251.00,,,,,0,00,99.99,,,,,,*60
$GPGSA,A,1,,,,,,,,,,,,,99.99,99.99,99.99*30
$GPGSV,4,1,16,01,29,297,,03,04,322,,04,01,280,,08,01,228,*77
$GPGSV,4,2,16,10,38,117,,11,21,257,,16,22,181,,20,08,134,*75
$GPGSV,4,3,16,21,46,249,,22,24,326,,23,11,130,,25,09,049,*76
$GPGSV,4,4,16,26,48,146,,27,07,197,,31,58,009,21,32,28,040,*72
$GPGLL,,,,,101251.00,V,N*4C
$GPRMC,101252.00,V,,,,,,,181020,,,N*72
$GPVTG,,,,,,,,,N*30
$GPGGA,101252.00,,,,,0,00,99.99,,,,,,*63
$GPGSA,A,1,,,,,,,,,,,,,99.99,99.99,99.99*30
$GPGSV,4,1,16,01,29,297,,03,04,322,,04,01,280,,08,01,228,*77
$GPGSV,4,2,16,10,38,117,,11,21,257,,16,22,181,,20,08,134,*75
$GPGSV,4,3,16,21,46,249,,22,24,326,,23,11,130,,25,09,049,*76
$GPGSV,4,4,16,26,48,146,,27,07,197,,31,58,009,20,32,28,040,*73
$GPGLL,,,,,101252.00,V,N*4F
$GPRMC,101253.00,V,,,,,,,181020,,,N*73
$GPVTG,,,,,,,,,N*30
$GPGGA,101253.00,,,,,0,00,99.99,,,,,,*62
$GPGSA,A,1,,,,,,,,,,,,,99.99,99.99,99.99*30
$GPGSV,4,1,16,01,29,297,,03,04,322,,04,01,280,,08,01,228,*77
$GPGSV,4,2,16,10,38,117,,11,21,257,,16,22,181,,20,08,134,*75
$GPGSV,4,3,16,21,46,249,,22,24,326,,23,11,130,,25,09,049,*76
$GPGSV,4,4,16,26,48,146,,27,07,197,,31,58,009,20,32,28,040,*73
$GPGLL,,,,,101253.00,V,N*4E
$GPRMC,101254.00,V,,,,,,,181020,,,N*74
$GPVTG,,,,,,,,,N*30
$GPGGA,101254.00,,,,,0,00,99.99,,,,,,*65
$GPGSA,A,1,,,,,,,,,,,,,99.99,99.99,99.99*30
$GPGSV,4,1,16,01,29,297,,03,04,322,,04,01,280,,08,01,228,*77
$GPGSV,4,2,16,10,38,117,,11,21,257,,16,22,181,,20,08,134,*75
$GPGSV,4,3,16,21,46,249,,22,24,326,,23,11,130,,25,09,049,*76
$GPGSV,4,4,16,26,48,146,,27,07,197,,31,58,009,21,32,28,040,*72
$GPGLL,,,,,101254.00,V,N*49
$GPRMC,101255.00,V,,,,,,,181020,,,N*75
$GPVTG,,,,,,,,,N*30
$GPGGA,101255.00,,,,,0,00,99.99,,,,,,*64
$GPGSA,A,1,,,,,,,,,,,,,99.99,99.99,99.99*30
$GPGSV,4,1,16,01,29,297,,03,04,322,,04,01,280,,08,01,228,*77
$GPGSV,4,2,16,10,38,117,,11,21,257,,16,22,181,,20,08,134,*75
$GPGSV,4,3,16,21,46,249,,22,24,326,,23,11,130,,25,09,049,*76
$GPGSV,4,4,16,26,48,146,,27,07,197,,31,58,009,20,32,28,040,*73
$GPGLL,,,,,101255.00,V,N*48
$GPRMC,101256.00,V,,,,,,,181020,,,N*76
$GPVTG,,,,,,,,,N*30
$GPGGA,101256.00,,,,,0,00,99.99,,,,,,*67
$GPGSA,A,1,,,,,,,,,,,,,99.99,99.99,99.99*30
$GPGSV,4,1,16,01,29,297,,03,04,322,,04,01,280,,08,01,228,*77
$GPGSV,4,2,16,10,38,117,,11,21,257,,16,22,181,,20,08,134,*75
$GPGSV,4,3,16,21,46,249,,22,24,326,,23,11,130,,25,09,049,*76
$GPGSV,4,4,16,26,48,146,,27,07,197,,31,58,009,20,32,28,040,*73
$GPGLL,,,,,101256.00,V,N*4B
$GPRMC,101257.00,V,,,,,,,181020,,,N*77
$GPVTG,,,,,,,,,N*30
$GPGGA,101257.00,,,,,0,00,99.99,,,,,,*66
$GPGSA,A,1,,,,,,,,,,,,,99.99,99.99,99.99*30
$GPGSV,4,1,16,01,29,297,,03,04,322,,04,01,280,,08,01,228,*77
$GPGSV,4,2,16,10,38,117,,11,21,257,,16,22,181,,20,08,134,*75
$GPGSV,4,3,16,21,46,249,,22,24,326,,23,11,130,,25,09,049,*76
$GPGSV,4,4,16,26,48,146,,27,07,197,,31,58,009,19,32,28,040,*79
$GPGLL,,,,,101257.00,V,N*4A
$GPRMC,101258.00,V,,,,,,,181020,,,N*78
$GPVTG,,,,,,,,,N*30
$GPGGA,101258.00,,,,,0,00,99.99,,,,,,*69
$GPGSA,A,1,,,,,,,,,,,,,99.99,99.99,99.99*30
$GPGSV,4,1,16,01,29,297,,03,04,322,,04,01,280,,08,01,228,*77
$GPGSV,4,2,16,10,38,117,,11,21,257,,16,22,181,,20,08,134,*75
$GPGSV,4,3,16,21,46,249,,22,24,326,,23,11,130,,25,09,049,*76
$GPGSV,4,4,16,26,48,146,,27,07,197,,31,58,009,19,32,28,040,*79
$GPGLL,,,,,101258.00,V,N*45
$GPRMC,101259.00,V,,,,,,,181020,,,N*79
$GPVTG,,,,,,,,,N*30
$GPGGA,101259.00,,,,,0,00,99.99,,,,,,*68
$GPGSA,A,1,,,,,,,,,,,,,99.99,99.99,99.99*30
$GPGSV,4,1,16,01,29,297,,03,04,322,,04,01,280,,08,01,228,*77
$GPGSV,4,2,16,10,38,117,18,11,21,257,,16,22,181,,20,08,134,*7C
$GPGSV,4,3,16,21,46,249,,22,24,326,,23,11,130,,25,09,049,*76
$GPGSV,4,4,16,26,48,146,,27,07,197,,31,58,009,18,32,28,040,*78
$GPGLL,,,,,101259.00,V,N*44
$GPRMC,101300.00,V,,,,,,,181020,,,N*74
$GPVTG,,,,,,,,,N*30
$GPGGA,101300.00,,,,,0,00,99.99,,,,,,*65
$GPGSA,A,1,,,,,,,,,,,,,99.99,99.99,99.99*30
$GPGSV,4,1,16,01,29,297,,03,04,322,,04,01,280,,08,01,228,*77
$GPGSV,4,2,16,10,38,117,18,11,21,257,,16,22,181,,20,08,134,*7C
$GPGSV,4,3,16,21,46,249,,22,24,326,,23,11,130,,25,09,049,*76
$GPGSV,4,4,16,26,48,146,,27,07,197,,31,58,009,18,32,28,040,*78
$GPGLL,,,,,101300.00,V,N*49
$GPRMC,101301.00,V,,,,,,,181020,,,N*75
$GPVTG,,,,,,,,,N*30
$GPGGA,101301.00,,,,,0,00,99.99,,,,,,*64
$GPGSA,A,1,,,,,,,,,,,,,99.99,99.99,99.99*30
$GPGSV,4,1,16,01,29,297,,03,04,322,,04,01,280,,08,01,228,*77
$GPGSV,4,2,16,10,38,117,18,11,21,257,,16,22,181,,20,08,134,*7C
$GPGSV,4,3,16,21,46,249,,22,24,326,,23,11,130,,25,09,049,*76
$GPGSV,4,4,16,26,48,146,,27,07,197,,31,58,009,18,32,28,040,*78
$GPGLL,,,,,101301.00,V,N*48
$GPRMC,101302.00,V,,,,,,,181020,,,N*76
$GPVTG,,,,,,,,,N*30
$GPGGA,101302.00,,,,,0,00,99.99,,,,,,*67
$GPGSA,A,1,,,,,,,,,,,,,99.99,99.99,99.99*30
$GPGSV,4,1,16,01,29,297,,03,04,322,,04,01,280,,08,01,228,*77
$GPGSV,4,2,16,10,38,117,17,11,21,257,,16,22,181,,20,08,134,*73
$GPGSV,4,3,16,21,46,249,,22,24,326,,23,11,130,,25,09,049,*76
$GPGSV,4,4,16,26,48,146,,27,07,197,,31,58,009,18,32,28,040,*78
$GPGLL,,,,,101302.00,V,N*4B
$GPRMC,101303.00,V,,,,,,,181020,,,N*77
$GPVTG,,,,,,,,,N*30
$GPGGA,101303.00,,,,,0,00,99.99,,,,,,*66
$GPGSA,A,1,,,,,,,,,,,,,99.99,99.99,99.99*30
$GPGSV,4,1,16,01,29,297,,03,04,322,,04,01,280,,08,01,228,*77
$GPGSV,4,2,16,10,38,117,17,11,21,257,,16,22,181,,20,08,134,*73
$GPGSV,4,3,16,21,46,249,,22,24,326,,23,11,130,,25,09,049,*76
$GPGSV,4,4,16,26,48,146,,27,07,197,,31,58,009,19,32,28,040,*79
$GPGLL,,,,,101303.00,V,N*4A
$GPRMC,101304.00,V,,,,,,,181020,,,N*70
$GPVTG,,,,,,,,,N*30
GA,101304.00,,,,,0,00,99.99,,,,,,*61
$GPGSA,A,1,,,,,,,,,,,,,99.99,99.99,99.99*30
$GPGSV,4,1,16,01,29,297,,03,04,322,,04,01,280,,08,01,228,*77
$GPGSV,4,2,16,10,38,117,16,11,21,257,,16,22,181,,20,08,134,*72
$GPGSV,4,3,16,21,46,249,,22,24,326,,23,11,130,,25,09,049,*76
$GPGSV,4,4,16,26,48,146,,27,07,197,,31,58,009,19,32,28,040,*79
$GPGLL,,,,,101304.00,V,N*4D
$GPRMC,101305.00,V,,,,,,,181020,,,N*71
$GPVTG,,,,,,,,,N*30
$GPGGA,101305.00,,,,,0,00,99.99,,,,,,*60
$GPGSA,A,1,,,,,,,,,,,,,99.99,99.99,99.99*30
$GPGSV,4,1,16,01,29,297,,03,04,322,,04,01,280,,08,01,228,*77
$GPGSV,4,2,16,10,38,117,16,11,21,257,,16,22,181,,20,08,134,*72
$GPGSV,4,3,16,21,46,249,,22,24,326,,23,11,130,,25,09,049,*76
$GPGSV,4,4,16,26,48,146,,27,07,197,,31,58,009,19,32,28,040,*79
$GPGLL,,,,,101305.00,V,N*4C
$GPRMC,101306.00,V,,,,,,,181020,,,N*72
$GPVTG,,,,,,,,,N*30
$GPGGA,101306.00,,,,,0,00,99.99,,,,,,*63
$GPGSA,A,1,,,,,,,,,,,,,99.99,99.99,99.99*30
$GPGSV,4,1,16,01,29,297,,03,04,322,,04,01,280,,08,01,228,*77
$GPGSV,4,2,16,10,38,117,17,11,21,257,,16,22,181,,20,08,134,*73
$GPGSV,4,3,16,21,46,249,,22,24,326,,23,11,130,,25,09,049,*76
$GPGSV,4,4,16,26,48,146,,27,07,197,,31,58,009,19,32,28,040,*79
$GPGLL,,,,,101306.00,V,N*4F
$GPRMC,101307.00,V,,,,,,,181020,,,N*73
$GPVTG,,,,,,,,,N*30
$GPGGA,101307.00,,,,,0,00,99.99,,,,,,*62
$GPGSA,A,1,,,,,,,,,,,,,99.99,99.99,99.99*30
$GPGSV,4,1,16,01,29,297,,03,04,322,,04,01,280,,08,01,228,*77
$GPGSV,4,2,16,10,38,117,17,11,21,257,,16,22,181,,20,08,134,*73
$GPGSV,4,3,16,21,46,249,,22,24,326,,23,11,130,,25,09,049,*76
$GPGSV,4,4,16,26,48,146,,27,07,197,,31,58,009,19,32,28,040,*79
$GPGLL,,,,,101307.00,V,N*4E
$GPRMC,101308.00,V,,,,,,,181020,,,N*7C
$GPVTG,,,,,,,,,N*30
$GPGGA,101308.00,,,,,0,00,99.99,,,,,,*6D
$GPGSA,A,1,,,,,,,,,,,,,99.99,99.99,99.99*30
$GPGSV,4,1,16,01,29,297,,03,04,322,,04,01,280,,08,01,228,*77
$GPGSV,4,2,16,10,38,117,17,11,21,257,,16,22,181,,20,08,134,*73
$GPGSV,4,3,16,21,46,249,,22,24,326,,23,11,130,,25,09,049,*76
$GPGSV,4,4,16,26,48,146,,27,07,197,,31,58,009,17,32,28,040,*77
$GPGLL,,,,,101308.00,V,N*41
$GPRMC,101309.00,V,,,,,,,181020,,,N*7D
$GPVTG,,,,,,,,,N*30
$GPGGA,101309.00,,,,,0,00,99.99,,,,,,*6C
$GPGSA,A,1,,,,,,,,,,,,,99.99,99.99,99.99*30
$GPGSV,4,1,16,01,29,297,,03,04,322,,04,01,280,,08,01,228,*77
$GPGSV,4,2,16,10,38,117,16,11,21,257,,16,22,181,,20,08,134,*72
$GPGSV,4,3,16,21,46,249,,22,24,326,,23,11,130,,25,09,049,*76
$GPGSV,4,4,16,26,48,146,,27,07,197,,31,58,009,17,32,28,040,*77
$GPGLL,,,,,101309.00,V,N*40
$GPRMC,101310.00,V,,,,,,,181020,,,N*75
$GPVTG,,,,,,,,,N*30
$GPGGA,101310.00,,,,,0,00,99.99,,,,,,*64
$GPGSA,A,1,,,,,,,,,,,,,99.99,99.99,99.99*30
$GPGSV,4,1,16,01,29,297,,03,04,322,,04,01,280,,08,01,228,*77
$GPGSV,4,2,16,10,38,117,16,11,21,257,,16,22,181,,20,08,134,*72
$GPGSV,4,3,16,21,46,249,,22,24,326,,23,11,130,,25,09,049,*76
$GPGSV,4,4,16,26,48,146,,27,07,197,,31,58,009,17,32,28,040,*77
$GPGLL,,,,,101310.00,V,N*48
$GPRMC,101311.00,V,,,,,,,181020,,,N*74
$GPVTG,,,,,,,,,N*30
$GPGGA,101311.00,,,,,0,00,99.99,,,,,,*65
$GPGSA,A,1,,,,,,,,,,,,,99.99,99.99,99.99*30
$GPGSV,4,1,16,01,29,297,,03,04,322,,04,01,280,,08,01,228,*77
$GPGSV,4,2,16,10,38,117,17,11,21,257,,16,22,181,,20,08,134,*73
$GPGSV,4,3,16,21,46,249,,22,24,326,,23,11,130,,25,09,049,*76
$GPGSV,4,4,16,26,48,146,,27,07,197,,31,58,009,17,32,28,040,*77
$GPGLL,,,,,101311.00,V,N*49
$GPRMC,101312.00,V,,,,,,,181020,,,N*77
$GPVTG,,,,,,,,,N*30
$GPGGA,101312.00,,,,,0,00,99.99,,,,,,*66
$GPGSA,A,1,,,,,,,,,,,,,99.99,99.99,99.99*30
$GPGSV,4,1,16,01,29,297,,03,04,322,,04,01,280,,08,01,228,*77
$GPGSV,4,2,16,10,38,117,16,11,21,257,,16,22,181,,20,08,134,*72
$GPGSV,4,3,16,21,46,249,,22,24,326,,23,11,130,,25,09,049,*76
$GPGSV,4,4,16,26,48,146,,27,07,197,,31,58,009,17,32,28,040,*77
$GPGLL,,,,,101312.00,V,N*4A
$GPRMC,101313.00,V,,,,,,,181020,,,N*76
$GPVTG,,,,,,,,,N*30
$GPGGA,101313.00,,,,,0,00,99.99,,,,,,*67
$GPGSA,A,1,,,,,,,,,,,,,99.99,99.99,99.99*30
$GPGSV,4,1,16,01,29,297,,03,04,322,,04,01,280,,08,01,228,*77
$GPGSV,4,2,16,10,38,117,16,11,21,257,,16,22,181,,20,08,134,*72
$GPGSV,4,3,16,21,46,249,,22,24,326,,23,11,130,,25,09,049,*76
$GPGSV,4,4,16,26,48,146,,27,07,197,,31,58,009,16,32,28,040,*76
$GPGLL,,,,,101313.00,V,N*4B
$GPRMC,101314.00,V,,,,,,,181020,,,N*71
$GPVTG,,,,,,,,,N*30
$GPGGA,101314.00,,,,,0,00,99.99,,,,,,*60
$GPGSA,A,1,,,,,,,,,,,,,99.99,99.99,99.99*30
$GPGSV,4,1,16,01,29,297,,03,04,322,,04,01,280,,08,01,228,*77
$GPGSV,4,2,16,10,38,117,16,11,21,257,,16,22,181,,20,08,134,*72
$GPGSV,4,3,16,21,46,249,,22,24,326,,23,11,130,,25,09,049,*76
$GPGSV,4,4,16,26,48,146,,27,07,197,,31,58,009,16,32,28,040,*76
$GPGLL,,,,,101314.00,V,N*4C
$GPRMC,101315.00,V,,,,,,,181020,,,N*70
$GPVTG,,,,,,,,,N*30
$GPGGA,101315.00,,,,,0,00,99.99,,,,,,*61
$GPGSA,A,1,,,,,,,,,,,,,99.99,99.99,99.99*30
$GPGSV,4,1,16,01,29,297,,03,04,322,,04,01,280,,08,01,228,*77
$GPGSV,4,2,16,10,38,117,16,11,21,257,,16,22,181,,20,08,134,*72
$GPGSV,4,3,16,21,46,249,,22,24,326,,23,11,130,,25,09,049,*76
$GPGSV,4,4,16,26,48,146,,27,07,197,,31,58,009,16,32,28,040,*76
$GPGLL,,,,,101315.00,V,N*4D
$GPRMC,101316.00,V,,,,,,,181020,,,N*73
$GPVTG,,,,,,,,,N*30
$GPGGA,101316.00,,,,,0,00,99.99,,,,,,*62
$GPGSA,A,1,,,,,,,,,,,,,99.99,99.99,99.99*30
$GPGSV,4,1,16,01,29,297,,03,04,322,,04,01,280,,08,01,228,*77
$GPGSV,4,2,16,10,38,117,16,11,21,257,,16,22,181,,20,08,134,*72
$GPGSV,4,3,16,21,46,249,,22,24,326,,23,11,130,,25,09,049,*76
$GPGSV,4,4,16,26,48,146,,27,07,197,,31,58,009,16,32,28,040,*76
$GPGLL,,,,,101316.00,V,N*4E
$GPRMC,101317.00,V,,,,,,,181020,,,N*72
$GPVTG,,,,,,,,,N*30
$GPGGA,101317.00,,,,,0,00,99.99,,,,,,*63
$GPGSA,A,1,,,,,,,,,,,,,99.99,99.99,99.99*30
$GPGSV,4,1,16,01,29,297,,03,04,322,,04,01,280,,08,01,228,*77
$GPGSV,4,2,16,10,38,117,16,11,21,257,,16,22,181,,20,08,134,*72
$GPGSV,4,3,16,21,46,249,,22,24,326,,23,11,130,,25,09,049,*76
$GPGSV,4,4,16,26,48,146,,27,07,197,,31,58,009,14,32,28,040,*74
$GPGLL,,,,,101317.00,V,N*4F
$GPRMC,101318.00,V,,,,,,,181020,,,N*7D
$GPVTG,,,,,,,,,N*30
$GPGGA,101318.00,,,,,0,00,99.99,,,,,,*6C
$GPGSA,A,1,,,,,,,,,,,,,99.99,99.99,99.99*30
$GPGSV,4,1,16,01,29,297,,03,04,322,,04,01,280,,08,01,228,*77
$GPGSV,4,2,16,10,38,117,16,11,21,257,,16,22,181,,20,08,134,*72
$GPGSV,4,3,16,21,46,249,,22,24,326,,23,11,130,,25,09,049,*76
$GPGSV,4,4,16,26,48,146,,27,07,197,,31,58,009,13,32,28,040,*73
$GPGLL,,,,,101318.00,V,N*40
$GPRMC,101319.00,V,,,,,,,181020,,,N*7C
$GPVTG,,,,,,,,,N*30
$GPGGA,101319.00,,,,,0,00,99.99,,,,,,*6D
$GPGSA,A,1,,,,,,,,,,,,,99.99,99.99,99.99*30
$GPGSV,4,1,16,01,29,297,,03,04,322,,04,01,280,,08,01,228,*77
$GPGSV,4,2,16,10,38,117,16,11,21,257,,16,22,181,,20,08,134,*72
$GPGSV,4,3,16,21,46,249,,22,24,326,,23,11,130,,25,09,049,*76
$GPGSV,4,4,16,26,48,146,,27,07,197,,31,58,009,12,32,28,040,*72
$GPGLL,,,,,101319.00,V,N*41
$GPRMC,101320.00,V,,,,,,,181020,,,N*76
$GPVTG,,,,,,,,,N*30
$GPGGA,101320.00,,,,,0,00,99.99,,,,,,*67
$GPGSA,A,1,,,,,,,,,,,,,99.99,99.99,99.99*30
$GPGSV,4,1,16,01,29,297,,03,04,323,,04,01,280,,08,01,228,*76
$GPGSV,4,2,16,10,38,117,16,11,21,257,,16,22,181,,20,08,134,*72
$GPGSV,4,3,16,21,46,249,,22,24,326,,23,11,130,,25,09,049,*76
$GPGSV,4,4,16,26,48,146,,27,07,197,,31,58,009,12,32,28,040,*72
$GPGLL,,,,,101320.00,V,N*4B
$GPRMC,101321.00,V,,,,,,,181020,,,N*77
$GPVTG,,,,,,,,,N*30
$GPGGA,101321.00,,,,,0,00,99.99,,,,,,*66
$GPGSA,A,1,,,,,,,,,,,,,99.99,99.99,99.99*30
$GPGSV,4,1,16,01,29,297,,03,04,323,,04,01,280,,08,01,228,*76
$GPGSV,4,2,16,10,38,117,16,11,21,257,,16,22,181,,20,08,134,*72
$GPGSV,4,3,16,21,46,249,,22,24,326,,23,11,130,,25,09,049,*76
$GPGSV,4,4,16,26,48,146,,27,07,197,,31,58,009,13,32,28,040,*73
$GPGLL,,,,,101321.00,V,N*4A
$GPRMC,101322.00,V,,,,,,,181020,,,N*74
$GPVTG,,,,,,,,,N*30
$GPGGA,101322.00,,,,,0,00,99.99,,,,,,*65
$GPGSA,A,1,,,,,,,,,,,,,99.99,99.99,99.99*30
$GPGSV,4,1,16,01,29,297,,03,04,323,,04,01,280,,08,01,228,*76
$GPGSV,4,2,16,10,38,117,16,11,21,257,,16,22,181,,20,08,134,*72
$GPGSV,4,3,16,21,46,249,,22,24,326,,23,11,130,,25,09,049,*76
$GPGSV,4,4,16,26,48,146,,27,07,197,,31,58,009,13,32,28,040,*73
$GPGLL,,,,,101322.00,V,N*49
$GPRMC,101323.00,V,,,,,,,181020,,,N*75
$GPVTG,,,,,,,,,N*30
$GPGGA,101323.00,,,,,0,00,99.99,,,,,,*64
$GPGSA,A,1,,,,,,,,,,,,,99.99,99.99,99.99*30
$GPGSV,4,1,16,01,29,297,,03,04,323,,04,01,280,,08,01,228,*76
$GPGSV,4,2,16,10,38,117,16,11,21,257,,16,22,181,,20,08,134,*72
$GPGSV,4,3,16,21,46,249,,22,24,326,,23,11,130,,25,09,049,*76
$GPGSV,4,4,16,26,48,146,,27,07,197,,31,58,009,15,32,28,040,*75
$GPGLL,,,,,101323.00,V,N*48
$GPRMC,101324.00,V,,,,,,,181020,,,N*72
$GPVTG,,,,,,,,,N*30
$GPGGA,101324.00,,,,,0,00,99.99,,,,,,*63
$GPGSA,A,1,,,,,,,,,,,,,99.99,99.99,99.99*30
$GPGSV,4,1,16,01,29,297,,03,04,323,,04,01,280,,08,01,228,*76
$GPGSV,4,2,16,10,38,117,16,11,21,256,,16,22,181,,20,08,134,*73
$GPGSV,4,3,16,21,46,249,,22,24,326,,23,11,130,,25,09,049,*76
$GPGSV,4,4,16,26,48,146,,27,07,197,,31,58,009,16,32,28,040,*76
$GPGLL,,,,,101324.00,V,N*4F
$GPRMC,101325.00,V,,,,,,,181020,,,N*73
$GPVTG,,,,,,,,,N*30
$GPGGA,101325.00,,,,,0,00,99.99,,,,,,*62
$GPGSA,A,1,,,,,,,,,,,,,99.99,99.99,99.99*30
$GPGSV,4,1,16,01,29,297,,03,04,323,,04,01,280,,08,01,228,*76
$GPGSV,4,2,16,10,38,117,15,11,21,256,,16,22,181,,20,08,134,*70
$GPGSV,4,3,16,21,46,249,,22,24,326,,23,11,130,,25,09,049,*76
$GPGSV,4,4,16,26,48,146,,27,07,197,,31,58,009,17,32,28,040,*77
$GPGLL,,,,,101325.00,V,N*4E
$GPRMC,101326.00,V,,,,,,,181020,,,N*70
$GPVTG,,,,,,,,,N*30
$GPGGA,101326.00,,,,,0,00,99.99,,,,,,*61
$GPGSA,A,1,,,,,,,,,,,,,99.99,99.99,99.99*30
$GPGSV,4,1,16,01,29,297,,03,04,323,,04,01,280,,08,01,228,*76
$GPGSV,4,2,16,10,38,117,16,11,21,256,,16,23,181,,20,08,134,*72
$GPGSV,4,3,16,21,46,249,,22,24,326,,23,11,130,,25,09,049,*76
$GPGSV,4,4,16,26,48,146,,27,07,197,,31,58,009,18,32,28,040,*78
$GPGLL,,,,,101326.00,V,N*4D
$GPRMC,101327.00,V,,,,,,,181020,,,N*71
$GPVTG,,,,,,,,,N*30
$GPGGA,101327.00,,,,,0,00,99.99,,,,,,*60
$GPGSA,A,1,,,,,,,,,,,,,99.99,99.99,99.99*30
$GPGSV,4,1,16,01,29,297,,03,04,323,,04,01,280,,08,01,228,*76
$GPGSV,4,2,16,10,38,117,16,11,21,256,,16,23,181,,20,08,134,*72
$GPGSV,4,3,16,21,46,249,,22,24,326,,23,11,130,,25,09,049,*76
$GPGSV,4,4,16,26,48,146,,27,07,197,,31,58,009,18,32,28,040,*78
$GPGLL,,,,,101327.00,V,N*4C
$GPRMC,101328.00,V,,,,,,,181020,,,N*7E
$GPVTG,,,,,,,,,N*30
$GPGGA,101328.00,,,,,0,00,99.99,,,,,,*6F
$GPGSA,A,1,,,,,,,,,,,,,99.99,99.99,99.99*30
$GPGSV,4,1,16,01,29,297,,03,04,323,,04,01,280,,08,01,228,*76
$GPGSV,4,2,16,10,38,117,16,11,21,256,,16,23,181,,20,08,134,*72
$GPGSV,4,3,16,21,46,249,,22,24,326,,23,11,130,,25,09,049,*76
$GPGSV,4,4,16,26,48,146,,27,07,197,,31,58,009,18,32,28,040,*78
$GPGLL,,,,,101328.00,V,N*43
$GPRMC,101329.00,V,,,,,,,181020,,,N*7F
$GPVTG,,,,,,,,,N*30
$GPGGA,101329.00,,,,,0,00,99.99,,,,,,*6E
$GPGSA,A,1,,,,,,,,,,,,,99.99,99.99,99.99*30
$GPGSV,4,1,16,01,29,297,,03,04,323,,04,01,280,,08,01,228,*76
$GPGSV,4,2,16,10,38,117,15,11,21,256,,16,23,181,,20,08,134,*71
$GPGSV,4,3,16,21,46,249,,22,25,326,,23,11,130,,25,09,049,*77
$GPGSV,4,4,16,26,48,146,,27,07,197,,31,58,009,17,32,28,040,*77
$GPGLL,,,,,101329.00,V,N*42
$GPRMC,101330.00,V,,,,,,,181020,,,N*77
$GPVTG,,,,,,,,,N*30
$GPGGA,101330.00,,,,,0,00,99.99,,,,,,*66
$GPGSA,A,1,,,,,,,,,,,,,99.99,99.99,99.99*30
$GPGSV,4,1,16,01,29,297,,03,04,323,,04,01,280,,08,01,228,*76
$GPGSV,4,2,16,10,38,117,15,11,21,256,,16,23,181,,20,08,134,*71
$GPGSV,4,3,16,21,46,249,,22,25,326,20,23,11,130,,25,09,049,*75
$GPGSV,4,4,16,26,48,146,,27,07,197,,31,58,009,16,32,28,040,*76
$GPGLL,,,,,101330.00,V,N*4A
$GPRMC,101331.00,V,,,,,,,181020,,,N*76
$GPVTG,,,,,,,,,N*30
$GPGGA,101331.00,,,,,0,00,99.99,,,,,,*67
$GPGSA,A,1,,,,,,,,,,,,,99.99,99.99,99.99*30
$GPGSV,4,1,16,01,29,297,,03,04,323,,04,01,280,,08,01,228,*76
$GPGSV,4,2,16,10,38,117,15,11,21,256,,16,23,181,,20,08,134,*71
$GPGSV,4,3,16,21,46,249,,22,25,326,16,23,11,130,,25,09,048,*71
$GPGSV,4,4,16,26,48,145,,27,07,197,,31,58,009,16,32,28,040,*75
$GPGLL,,,,,101331.00,V,N*4B
$GPRMC,101332.00,V,,,,,,,181020,,,N*75
$GPVTG,,,,,,,,,N*30
$GPGGA,101332.00,,,,,0,00,99.99,,,,,,*64
$GPGSA,A,1,,,,,,,,,,,,,99.99,99.99,99.99*30
$GPGSV,4,1,16,01,29,297,,03,04,323,,04,01,280,,08,01,228,*76
$GPGSV,4,2,16,10,38,117,15,11,21,256,,16,23,181,,20,08,134,*71
$GPGSV,4,3,16,21,46,249,,22,25,326,,23,11,130,,25,09,048,*76
$GPGSV,4,4,16,26,48,145,,27,07,197,,31,58,009,17,32,28,040,*74
$GPGLL,,,,,101332.00,V,N*48
$GPRMC,101333.00,V,,,,,,,181020,,,N*74
$GPVTG,,,,,,,,,N*30
$GPGGA,101333.00,,,,,0,00,99.99,,,,,,*65
$GPGSA,A,1,,,,,,,,,,,,,99.99,99.99,99.99*30
$GPGSV,4,1,16,01,29,297,,03,04,323,,04,01,280,,08,01,228,*76
$GPGSV,4,2,16,10,38,117,15,11,21,256,,16,23,181,,20,08,134,*71
$GPGSV,4,3,16,21,46,249,,22,25,326,,23,11,130,,25,09,048,*76
$GPGSV,4,4,16,26,48,145,,27,07,197,,31,58,009,18,32,28,040,*7B
$GPGLL,,,,,101333.00,V,N*49
$GPRMC,101334.00,V,,,,,,,181020,,,N*73
$GPVTG,,,,,,,,,N*30
$GPGGA,101334.00,,,,,0,00,99.99,,,,,,*62
$GPGSA,A,1,,,,,,,,,,,,,99.99,99.99,99.99*30
$GPGSV,4,1,16,01,29,297,,03,04,323,,04,01,280,,08,01,228,*76
$GPGSV,4,2,16,10,38,117,15,11,21,256,,16,23,181,,20,08,134,*71
$GPGSV,4,3,16,21,46,249,,22,25,326,,23,11,130,,25,09,048,*76
$GPGSV,4,4,16,26,48,145,,27,07,197,,31,58,009,18,32,27,040,*74
$GPGLL,,,,,101334.00,V,N*4E
$GPRMC,101335.00,V,,,,,,,181020,,,N*72
$GPVTG,,,,,,,,,N*30
$GPGGA,101335.00,,,,,0,00,99.99,,,,,,*63
$GPGSA,A,1,,,,,,,,,,,,,99.99,99.99,99.99*30
$GPGSV,4,1,16,01,29,297,,03,04,323,,04,01,280,,08,01,228,*76
$GPGSV,4,2,16,10,38,117,15,11,21,256,,16,23,181,,20,08,134,*71
$GPGSV,4,3,16,21,46,249,,22,25,326,,23,11,130,,25,09,048,*76
$GPGSV,4,4,16,26,48,145,,27,07,197,,31,58,009,18,32,27,040,*74
$GPGLL,,,,,101335.00,V,N*4F
$GPRMC,101336.00,V,,,,,,,181020,,,N*71
$GPVTG,,,,,,,,,N*30
$GPGGA,101336.00,,,,,0,00,99.99,,,,,,*60
$GPGSA,A,1,,,,,,,,,,,,,99.99,99.99,99.99*30
$GPGSV,4,1,16,01,29,297,,03,04,323,,04,01,280,,08,01,228,*76
$GPGSV,4,2,16,10,38,117,15,11,21,256,,16,23,181,,20,08,134,*71
$GPGSV,4,3,16,21,46,249,,22,25,326,,23,11,130,,25,09,048,*76
$GPGSV,4,4,16,26,48,145,,27,07,197,,31,58,009,19,32,27,040,*75
$GPGLL,,,,,101336.00,V,N*4C
$GPRMC,101337.00,V,,,,,,,181020,,,N*70
$GPVTG,,,,,,,,,N*30
$GPGGA,101337.00,,,,,0,00,99.99,,,,,,*61
$GPGSA,A,1,,,,,,,,,,,,,99.99,99.99,99.99*30
$GPGSV,4,1,16,01,29,297,,03,04,323,,04,01,280,,08,01,228,*76
$GPGSV,4,2,16,10,38,117,16,11,21,256,,16,23,181,,20,08,134,*72
$GPGSV,4,3,16,21,46,249,,22,25,326,,23,11,130,,25,09,048,*76
$GPGSV,4,4,16,26,48,145,,27,07,197,,31,58,009,19,32,27,040,*75
$GPGLL,,,,,101337.00,V,N*4D
$GPRMC,101338.00,V,,,,,,,181020,,,N*7F
$GPVTG,,,,,,,,,N*30
$GPGGA,101338.00,,,,,0,00,99.99,,,,,,*6E
$GPGSA,A,1,,,,,,,,,,,,,99.99,99.99,99.99*30
$GPGSV,4,1,16,01,29,297,,03,04,323,,04,01,280,,08,01,228,*76
$GPGSV,4,2,16,10,38,117,15,11,21,256,,16,23,181,,20,08,134,*71
$GPGSV,4,3,16,21,46,249,,22,25,326,,23,11,130,,25,09,048,*76
$GPGSV,4,4,16,26,48,145,,27,07,197,,31,58,009,18,32,27,040,*74
$GPGLL,,,,,101338.00,V,N*42
$GPRMC,101339.00,V,,,,,,,181020,,,N*7E
$GPVTG,,,,,,,,,N*30
$GPGGA,101339.00,,,,,0,00,99.99,,,,,,*6F
$GPGSA,A,1,,,,,,,,,,,,,99.99,99.99,99.99*30
$GPGSV,4,1,16,01,29,297,,03,04,323,,04,01,280,,08,01,228,*76
$GPGSV,4,2,16,10,38,117,15,11,21,256,,16,23,181,,20,08,134,*71
$GPGSV,4,3,16,21,46,249,,22,25,326,,23,11,130,,25,09,048,*76
$GPGSV,4,4,16,26,48,145,,27,07,197,,31,58,009,18,32,27,040,*74
$GPGLL,,,,,101339.00,V,N*43
$GPRMC,101340.00,V,,,,,,,181020,,,N*70
$GPVTG,,,,,,,,,N*30
$GPGGA,101340.00,,,,,0,00,99.99,,,,,,*61
$GPGSA,A,1,,,,,,,,,,,,,99.99,99.99,99.99*30
$GPGSV,4,1,16,01,29,297,,03,04,323,,04,01,280,,08,01,228,*76
$GPGSV,4,2,16,10,38,117,10,11,21,256,,16,23,181,,20,08,134,*74
$GPGSV,4,3,16,21,46,249,,22,25,326,,23,11,130,,25,09,048,*76
$GPGSV,4,4,16,26,48,145,,27,07,197,,31,58,009,18,32,27,040,*74
$GPGLL,,,,,101340.00,V,N*4D
$GPRMC,101341.00,V,,,,,,,181020,,,N*71
$GPVTG,,,,,,,,,N*30
$GPGGA,101341.00,,,,,0,00,99.99,,,,,,*60
$GPGSA,A,1,,,,,,,,,,,,,99.99,99.99,99.99*30
$GPGSV,4,1,16,01,29,297,,03,04,323,,04,01,280,,08,01,228,*76
$GPGSV,4,2,16,10,38,117,08,11,21,256,,16,23,181,,20,08,134,*7D
$GPGSV,4,3,16,21,46,249,,22,25,326,,23,11,130,,25,09,048,*76
$GPGSV,4,4,16,26,48,145,,27,07,197,,31,58,009,19,32,27,040,*75
$GPGLL,,,,,101341.00,V,N*4C
$GPRMC,101342.00,V,,,,,,,181020,,,N*72
$GPVTG,,,,,,,,,N*30
$GPGGA,101342.00,,,,,0,00,99.99,,,,,,*63
$GPGSA,A,1,,,,,,,,,,,,,99.99,99.99,99.99*30
$GPGSV,4,1,16,01,29,297,,03,04,323,,04,01,280,,08,01,228,*76
$GPGSV,4,2,16,10,38,117,08,11,21,256,,16,23,181,,20,08,134,*7D
$GPGSV,4,3,16,21,46,249,,22,25,326,,23,11,130,,25,09,048,*76
$GPGSV,4,4,16,26,48,145,,27,07,197,,31,58,009,19,32,27,040,*75
$GPGLL,,,,,101342.00,V,N*4F
$GPRMC,101343.00,V,,,,,,,181020,,,N*73
$GPVTG,,,,,,,,,N*30
$GPGGA,101343.00,,,,,0,00,99.99,,,,,,*62
$GPGSA,A,1,,,,,,,,,,,,,99.99,99.99,99.99*30
$GPGSV,4,1,16,01,29,297,,03,04,323,,04,01,280,,08,01,228,*76
$GPGSV,4,2,16,10,38,117,11,11,21,256,,16,23,181,,20,08,134,*75
$GPGSV,4,3,16,21,46,249,,22,25,326,,23,11,130,,25,09,048,*76
$GPGSV,4,4,16,26,48,145,,27,07,197,,31,58,009,20,32,27,040,*7F
$GPGLL,,,,,101343.00,V,N*4E
$GPRMC,101344.00,V,,,,,,,181020,,,N*74
$GPVTG,,,,,,,,,N*30
$GPGGA,101344.00,,,,,0,00,99.99,,,,,,*65
$GPGSA,A,1,,,,,,,,,,,,,99.99,99.99,99.99*30
$GPGSV,4,1,16,01,29,297,,03,04,323,,04,01,280,,08,01,228,*76
$GPGSV,4,2,16,10,38,117,12,11,21,256,,16,23,181,,20,08,134,*76
$GPGSV,4,3,16,21,46,249,,22,25,326,,23,11,130,,25,09,048,*76
$GPGSV,4,4,16,26,48,145,,27,07,197,,31,58,009,19,32,27,040,*75
$GPGLL,,,,,101344.00,V,N*49
$GPRMC,101345.00,V,,,,,,,181020,,,N*75
$GPVTG,,,,,,,,,N*30
$GPGGA,101345.00,,,,,0,00,99.99,,,,,,*64
$GPGSA,A,1,,,,,,,,,,,,,99.99,99.99,99.99*30
$GPGSV,4,1,16,01,29,297,,03,04,323,,04,01,280,,08,01,228,*76
$GPGSV,4,2,16,10,38,117,13,11,21,256,,16,23,181,,20,08,134,*77
$GPGSV,4,3,16,21,46,249,,22,25,326,,23,11,130,,25,09,048,*76
$GPGSV,4,4,16,26,48,145,,27,07,197,,31,58,009,19,32,27,040,*75
$GPGLL,,,,,101345.00,V,N*48
$GPRMC,101346.00,V,,,,,,,181020,,,N*76
$GPVTG,,,,,,,,,N*30
$GPGGA,101346.00,,,,,0,00,99.99,,,,,,*67
$GPGSA,A,1,,,,,,,,,,,,,99.99,99.99,99.99*30
$GPGSV,4,1,16,01,29,297,,03,04,323,,04,01,280,,08,01,228,*76
$GPGSV,4,2,16,10,38,117,12,11,21,256,,16,23,181,,20,08,134,*76
$GPGSV,4,3,16,21,46,249,,22,25,326,,23,11,130,,25,09,048,*76
$GPGSV,4,4,16,26,48,145,,27,07,197,,31,58,009,20,32,27,040,*7F
$GPGLL,,,,,101346.00,V,N*4B
$GPRMC,101347.00,V,,,,,,,181020,,,N*77
$GPVTG,,,,,,,,,N*30
