Terminal log file
Date: 26-09-2021 - 13:23:39
-----------------------------------------------
$GPRMC,075338.00,V,,,,,,,260921,,,N*79
$GPVTG,,,,,,,,,N*30
$GPGGA,075338.00,,,,,0,00,99.99,,,,,,*6C
$GPGSA,A,1,,,,,,,,,,,,,99.99,99.99,99.99*30
$GPGSV,3,1,09,08,10,298,22,10,42,004,,18,48,138,,23,38,051,*7A
$GPGSV,3,2,09,24,15,043,,25,08,124,,27,25,272,33,31,26,193,09*7D
$GPGSV,3,3,09,32,58,304,09*42
$GPGLL,,,,,075338.00,V,N*40
$GPRMC,075339.00,V,,,,,,,260921,,,N*78
$GPVTG,,,,,,,,,N*30
$GPGGA,075339.00,,,,,0,00,99.99,,,,,,*6D
$GPGSA,A,1,,,,,,,,,,,,,99.99,99.99,99.99*30
$GPGSV,3,1,09,08,10,298,23,10,42,004,,18,48,138,,23,38,051,*7B
$GPGSV,3,2,09,24,15,043,,25,08,124,,27,25,272,33,31,26,193,08*7C
$GPGSV,3,3,09,32,58,304,08*43
$GPGLL,,,,,075339.00,V,N*41
$GPRMC,075340.00,V,,,,,,,260921,,,N*76
$GPVTG,,,,,,,,,N*30
$GPGGA,075340.00,,,,,0,00,99.99,,,,,,*63
$GPGSA,A,1,,,,,,,,,,,,,99.99,99.99,99.99*30
$GPGSV,3,1,09,08,10,298,23,10,42,004,,18,48,138,,23,38,051,*7B
$GPGSV,3,2,09,24,15,043,,25,08,124,,27,25,272,33,31,26,193,08*7C
$GPGSV,3,3,09,32,58,304,08*43
$GPGLL,,,,,075340.00,V,N*4F
$GPRMC,075341.00,V,,,,,,,260921,,,N*77
$GPVTG,,,,,,,,,N*30
$GPGGA,075341.00,,,,,0,00,99.99,,,,,,*62
$GPGSA,A,1,,,,,,,,,,,,,99.99,99.99,99.99*30
$GPGSV,3,1,09,08,10,298,23,10,42,004,,18,48,138,,23,38,051,*7B
$GPGSV,3,2,09,24,15,043,,25,08,124,,27,25,272,33,31,26,193,07*73
$GPGSV,3,3,09,32,58,304,08*43
$GPGLL,,,,,075341.00,V,N*4E
$GPRMC,075342.00,V,,,,,,,260921,,,N*74
$GPVTG,,,,,,,,,N*30
$GPGGA,075342.00,,,,,0,00,99.99,,,,,,*61
$GPGSA,A,1,,,,,,,,,,,,,99.99,99.99,99.99*30
$GPGSV,3,1,09,08,10,298,23,10,42,004,,18,48,138,,23,38,051,*7B
$GPGSV,3,2,09,24,15,043,,25,08,124,,27,25,272,34,31,26,193,*73
$GPGSV,3,3,09,32,58,304,08*43
$GPGLL,,,,,075342.00,V,N*4D
$GPRMC,075343.00,V,,,,,,,260921,,,N*75
$GPVTG,,,,,,,,,N*30
$GPGGA,075343.00,,,,,0,00,99.99,,,,,,*60
$GPGSA,A,1,,,,,,,,,,,,,99.99,99.99,99.99*30
$GPGSV,3,1,09,08,10,298,23,10,42,004,,18,48,138,,23,38,051,*7B
$GPGSV,3,2,09,24,15,043,,25,08,124,,27,25,272,33,31,26,193,*74
$GPGSV,3,3,09,32,58,304,09*42
$GPGLL,,,,,075343.00,V,N*4C
$GPRMC,075344.00,V,,,,,,,260921,,,N*72
$GPVTG,,,,,,,,,N*30
$GPGGA,075344.00,,,,,0,00,99.99,,,,,,*67
$GPGSA,A,1,,,,,,,,,,,,,99.99,99.99,99.99*30
$GPGSV,3,1,09,08,10,298,23,10,42,004,21,18,48,138,,23,38,051,*78
$GPGSV,3,2,09,24,15,043,,25,08,124,,27,25,272,33,31,26,193,*74
$GPGSV,3,3,09,32,58,304,12*48
$GPGLL,,,,,075344.00,V,N*4B
$GPRMC,075345.00,V,,,,,,,260921,,,N*73
$GPVTG,,,,,,,,,N*30
$GPGGA,075345.00,,,,,0,00,99.99,,,,,,*66
$GPGSA,A,1,,,,,,,,,,,,,99.99,99.99,99.99*30
$GPGSV,3,1,09,08,10,298,23,10,42,004,,18,48,138,,23,38,051,*7B
$GPGSV,3,2,09,24,15,043,,25,08,124,,27,25,272,33,31,26,193,*74
$GPGSV,3,3,09,32,58,304,12*48
$GPGLL,,,,,075345.00,V,N*4A
$GPRMC,075346.00,V,,,,,,,260921,,,N*70
$GPVTG,,,,,,,,,N*30
$GPGGA,075346.00,,,,,0,00,99.99,,,,,,*65
$GPGSA,A,1,,,,,,,,,,,,,99.99,99.99,99.99*30
$GPGSV,3,1,09,08,10,298,24,10,42,004,,18,48,138,23,23,38,051,28*77
$GPGSV,3,2,09,24,15,043,,25,08,124,,27,25,272,33,31,26,193,*74
$GPGSV,3,3,09,32,58,304,12*48
$GPGLL,,,,,075346.00,V,N*49
$GPRMC,075347.00,V,,,,,,,260921,,,N*71
$GPVTG,,,,,,,,,N*30
$GPGGA,075347.00,,,,,0,03,4.54,,,,,,*52
$GPGSA,A,1,32,08,27,,,,,,,,,,4.65,4.54,1.00*0F
$GPGSV,3,1,09,08,10,298,23,10,42,004,,18,48,138,,23,38,051,*7B
$GPGSV,3,2,09,24,15,043,,25,08,124,,27,25,272,33,31,26,193,*74
$GPGSV,3,3,09,32,58,304,11*4B
$GPGLL,,,,,075347.00,V,N*48
$GPRMC,075348.00,V,,,,,,,260921,,,N*7E
$GPVTG,,,,,,,,,N*30
$GPGGA,075348.00,,,,,0,03,4.54,,,,,,*5D
$GPGSA,A,1,32,08,27,,,,,,,,,,4.65,4.54,1.00*0F
$GPGSV,3,1,09,08,10,298,24,10,42,004,,18,48,138,,23,38,051,*7C
$GPGSV,3,2,09,24,15,043,,25,08,124,,27,25,272,33,31,26,193,*74
$GPGSV,3,3,09,32,58,304,10*4A
$GPGLL,,,,,075348.00,V,N*47
$GPRMC,075349.00,V,,,,,,,260921,,,N*7F
$GPVTG,,,,,,,,,N*30
$GPGGA,075349.00,,,,,0,00,99.99,,,,,,*6A
$GPGSA,A,1,,,,,,,,,,,,,99.99,99.99,99.99*30
$GPGSV,3,1,09,08,10,298,24,10,42,004,,18,48,138,,23,38,051,*7C
$GPGSV,3,2,09,24,15,043,,25,08,124,,27,25,272,33,31,26,193,25*73
$GPGSV,3,3,09,32,58,304,09*42
$GPGLL,,,,,075349.00,V,N*46
$GPRMC,075350.00,V,,,,,,,260921,,,N*77
$GPVTG,,,,,,,,,N*30
$GPGGA,075350.00,,,,,0,03,4.54,,,,,,*54
$GPGSA,A,1,32,08,27,,,,,,,,,,4.65,4.54,1.00*0F
$GPGSV,3,1,09,08,10,298,25,10,42,004,,18,48,138,,23,38,051,*7D
$GPGSV,3,2,09,24,15,043,,25,08,124,,27,25,272,34,31,26,193,*73
$GPGSV,3,3,09,32,58,304,10*4A
$GPGLL,,,,,075350.00,V,N*4E
$GPRMC,075351.00,V,,,,,,,260921,,,N*76
$GPVTG,,,,,,,,,N*30
$GPGGA,075351.00,,,,,0,00,99.99,,,,,,*63
$GPGSA,A,1,,,,,,,,,,,,,99.99,99.99,99.99*30
$GPGSV,3,1,09,08,10,298,25,10,42,004,,18,48,138,,23,38,052,*7E
$GPGSV,3,2,09,24,15,043,,25,08,124,,27,25,272,34,31,26,193,*73
$GPGSV,3,3,09,32,58,304,09*42
$GPGLL,,,,,075351.00,V,N*4F
$GPRMC,075352.00,V,,,,,,,260921,,,N*75
$GPVTG,,,,,,,,,N*30
$GPGGA,075352.00,,,,,0,00,99.99,,,,,,*60
$GPGSA,A,1,,,,,,,,,,,,,99.99,99.99,99.99*30
$GPGSV,3,1,09,08,10,298,24,10,42,004,,18,48,138,,23,38,052,*7F
$GPGSV,3,2,09,24,15,043,,25,08,124,,27,25,272,33,31,26,193,*74
$GPGSV,3,3,09,32,58,304,09*42
$GPGLL,,,,,075352.00,V,N*4C
$GPRMC,075353.00,V,,,,,,,260921,,,N*74
$GPVTG,,,,,,,,,N*30
$GPGGA,075353.00,,,,,0,03,4.54,,,,,,*57
$GPGSA,A,1,32,08,27,,,,,,,,,,4.65,4.54,1.00*0F
$GPGSV,3,1,09,08,10,298,23,10,42,004,,18,48,138,,23,38,052,*78
$GPGSV,3,2,09,24,15,043,,25,08,123,,27,25,272,33,31,26,193,*73
$GPGSV,3,3,09,32,58,304,10*4A
$GPGLL,,,,,075353.00,V,N*4D
$GPRMC,075354.00,V,,,,,,,260921,,,N*73
$GPVTG,,,,,,,,,N*30
$GPGGA,075354.00,,,,,0,03,4.54,,,,,,*50
$GPGSA,A,1,32,08,27,,,,,,,,,,4.65,4.54,1.00*0F
$GPGSV,3,1,09,08,10,298,23,10,42,004,,18,48,138,,23,38,052,*78
$GPGSV,3,2,09,24,15,043,,25,08,123,,27,25,272,33,31,26,193,*73
$GPGSV,3,3,09,32,58,304,11*4B
$GPGLL,,,,,075354.00,V,N*4A
$GPRMC,075355.00,V,,,,,,,260921,,,N*72
$GPVTG,,,,,,,,,N*30
$GPGGA,075355.00,,,,,0,03,4.54,,,,,,*51
$GPGSA,A,1,32,08,27,,,,,,,,,,4.65,4.54,1.00*0F
$GPGSV,3,1,09,08,10,298,23,10,42,004,,18,48,138,,23,38,052,*78
$GPGSV,3,2,09,24,15,043,,25,08,123,,27,25,271,34,31,26,193,*77
$GPGSV,3,3,09,32,58,304,13*49
$GPGLL,,,,,075355.00,V,N*4B
$GPRMC,075356.00,V,,,,,,,260921,,,N*71
$GPVTG,,,,,,,,,N*30
$GPGGA,075356.00,,,,,0,03,4.54,,,,,,*52
$GPGSA,A,1,32,08,27,,,,,,,,,,4.65,4.54,1.00*0F
$GPGSV,3,1,09,08,10,298,23,10,42,004,,18,48,138,,23,38,052,*78
$GPGSV,3,2,09,24,15,043,,25,08,123,,27,25,271,33,31,26,193,*70
$GPGSV,3,3,09,32,58,304,14*4E
$GPGLL,,,,,075356.00,V,N*48
$GPRMC,075357.00,V,,,,,,,260921,,,N*70
$GPVTG,,,,,,,,,N*30
$GPGGA,075357.00,,,,,0,03,4.54,,,,,,*53
$GPGSA,A,1,32,08,27,,,,,,,,,,4.65,4.54,1.00*0F
$GPGSV,3,1,09,08,10,298,23,10,42,004,,18,48,138,,23,38,052,*78
$GPGSV,3,2,09,24,15,043,,25,08,123,,27,25,271,33,31,26,193,*70
$GPGSV,3,3,09,32,58,304,14*4E
$GPGLL,,,,,075357.00,V,N*49
$GPRMC,075358.00,V,,,,,,,260921,,,N*7F
$GPVTG,,,,,,,,,N*30
$GPGGA,075358.00,,,,,0,03,4.54,,,,,,*5C
$GPGSA,A,1,32,08,27,,,,,,,,,,4.65,4.54,1.00*0F
$GPGSV,3,1,09,08,10,298,23,10,42,004,,18,48,138,,23,38,052,*78
$GPGSV,3,2,09,24,15,043,,25,08,123,,27,25,271,33,31,26,193,*70
$GPGSV,3,3,09,32,58,304,14*4E
$GPGLL,,,,,075358.00,V,N*46
$GPRMC,075359.00,V,,,,,,,260921,,,N*7E
$GPVTG,,,,,,,,,N*30
$GPGGA,075359.00,,,,,0,03,4.54,,,,,,*5D
$GPGSA,A,1,32,08,27,,,,,,,,,,4.65,4.54,1.00*0F
$GPGSV,3,1,09,08,10,298,23,10,42,004,,18,48,138,,23,38,052,*78
$GPGSV,3,2,09,24,15,043,,25,08,123,,27,25,271,34,31,27,193,*76
$GPGSV,3,3,09,32,58,304,14*4E
$GPGLL,,,,,075359.00,V,N*47
$GPRMC,075400.00,V,,,,,,,260921,,,N*75
$GPVTG,,,,,,,,,N*30
$GPGGA,075400.00,,,,,0,03,4.54,,,,,,*56
$GPGSA,A,1,32,08,27,,,,,,,,,,4.65,4.54,1.00*0F
$GPGSV,3,1,09,08,10,298,23,10,42,004,,18,48,138,,23,38,052,*78
$GPGSV,3,2,09,24,15,043,,25,08,123,,27,25,271,34,31,27,193,*76
$GPGSV,3,3,09,32,58,305,16*4D
$GPGLL,,,,,075400.00,V,N*4C
$GPRMC,075401.00,V,,,,,,,260921,,,N*74
$GPVTG,,,,,,,,,N*30
$GPGGA,075401.00,,,,,0,03,4.54,,,,,,*57
$GPGSA,A,1,32,08,27,,,,,,,,,,4.65,4.54,1.00*0F
$GPGSV,3,1,09,08,10,298,23,10,42,004,,18,48,138,,23,38,052,*78
$GPGSV,3,2,09,24,15,043,,25,08,123,,27,25,271,34,31,27,193,*76
$GPGSV,3,3,09,32,58,305,16*4D
$GPGLL,,,,,075401.00,V,N*4D
$GPRMC,075402.00,V,,,,,,,260921,,,N*77
$GPVTG,,,,,,,,,N*30
$GPGGA,075402.00,,,,,0,03,4.54,,,,,,*54
$GPGSA,A,1,32,08,27,,,,,,,,,,4.65,4.54,1.00*0F
$GPGSV,3,1,09,08,10,298,23,10,42,004,,18,48,138,,23,38,052,*78
$GPGSV,3,2,09,24,15,043,,25,08,123,,27,25,271,33,31,27,193,*71
$GPGSV,3,3,09,32,58,305,16*4D
$GPGLL,,,,,075402.00,V,N*4E
$GPRMC,075403.00,V,,,,,,,260921,,,N*76
$GPVTG,,,,,,,,,N*30
$GPGGA,075403.00,,,,,0,03,4.54,,,,,,*55
$GPGSA,A,1,32,08,27,,,,,,,,,,4.65,4.54,1.00*0F
$GPGSV,3,1,09,08,10,298,23,10,42,004,,18,48,138,,23,38,052,*78
$GPGSV,3,2,09,24,15,043,,25,08,123,,27,25,271,34,31,27,193,*76
$GPGSV,3,3,09,32,58,305,16*4D
$GPGLL,,,,,075403.00,V,N*4F
$GPRMC,075404.00,V,,,,,,,260921,,,N*71
$GPVTG,,,,,,,,,N*30
$GPGGA,075404.00,,,,,0,03,4.54,,,,,,*52
$GPGSA,A,1,32,08,27,,,,,,,,,,4.65,4.54,1.00*0F
$GPGSV,3,1,09,08,10,298,24,10,42,004,,18,48,138,,23,38,052,*7F
$GPGSV,3,2,09,24,15,043,,25,08,123,,27,25,271,34,31,27,193,*76
$GPGSV,3,3,09,32,58,305,16*4D
$GPGLL,,,,,075404.00,V,N*48
$GPRMC,075405.00,V,,,,,,,260921,,,N*70
$GPVTG,,,,,,,,,N*30
$GPGGA,075405.00,,,,,0,03,4.54,,,,,,*53
$GPGSA,A,1,32,08,27,,,,,,,,,,4.65,4.54,1.00*0F
$GPGSV,3,1,09,08,10,298,23,10,42,004,,18,48,138,,23,38,052,*78
$GPGSV,3,2,09,24,15,043,,25,08,123,,27,25,271,34,31,27,193,*76
$GPGSV,3,3,09,32,58,305,16*4D
$GPGLL,,,,,075405.00,V,N*49
$GPRMC,075406.00,V,,,,,,,260921,,,N*73
$GPVTG,,,,,,,,,N*30
$GPGGA,075406.00,,,,,0,03,4.54,,,,,,*50
$GPGSA,A,1,32,08,27,,,,,,,,,,4.65,4.54,1.00*0F
$GPGSV,3,1,09,08,10,298,22,10,42,004,,18,48,138,,23,38,052,*79
$GPGSV,3,2,09,24,15,043,,25,08,123,,27,25,271,34,31,27,193,*76
$GPGSV,3,3,09,32,58,305,17*4C
$GPGLL,,,,,075406.00,V,N*4A
$GPRMC,075407.00,V,,,,,,,260921,,,N*72
$GPVTG,,,,,,,,,N*30
$GPGGA,075407.00,,,,,0,03,4.54,,,,,,*51
$GPGSA,A,1,32,08,27,,,,,,,,,,4.65,4.54,1.00*0F
$GPGSV,3,1,09,08,10,298,23,10,42,004,,18,48,138,,23,38,052,*78
$GPGSV,3,2,09,24,15,043,,25,08,123,,27,25,271,34,31,27,193,*76
$GPGSV,3,3,09,32,58,305,16*4D
$GPGLL,,,,,075407.00,V,N*4B
$GPRMC,075408.00,V,,,,,,,260921,,,N*7D
$GPVTG,,,,,,,,,N*30
$GPGGA,075408.00,,,,,0,03,4.54,,,,,,*5E
$GPGSA,A,1,32,08,27,,,,,,,,,,4.65,4.54,1.00*0F
$GPGSV,3,1,09,08,10,298,22,10,42,004,,18,48,138,,23,38,052,*79
$GPGSV,3,2,09,24,15,043,,25,08,123,,27,25,271,34,31,27,193,*76
$GPGSV,3,3,09,32,58,305,16*4D
$GPGLL,,,,,075408.00,V,N*44
$GPRMC,075409.00,V,,,,,,,260921,,,N*7C
$GPVTG,,,,,,,,,N*30
$GPGGA,075409.00,,,,,0,03,4.54,,,,,,*5F
$GPGSA,A,1,32,08,27,,,,,,,,,,4.65,4.54,1.00*0F
$GPGSV,3,1,09,08,10,298,22,10,42,004,,18,48,138,,23,38,052,*79
$GPGSV,3,2,09,24,15,043,,25,08,123,,27,25,271,34,31,27,193,*76
$GPGSV,3,3,09,32,58,305,15*4E
$GPGLL,,,,,075409.00,V,N*45
$GPRMC,075410.00,V,,,,,,,260921,,,N*74
$GPVTG,,,,,,,,,N*30
$GPGGA,075410.00,,,,,0,03,4.54,,,,,,*57
$GPGSA,A,1,32,08,27,,,,,,,,,,4.65,4.54,1.00*0F
$GPGSV,3,1,09,08,10,298,22,10,42,004,,18,48,138,,23,38,052,*79
$GPGSV,3,2,09,24,15,043,,25,08,123,,27,25,271,34,31,27,193,*76
$GPGSV,3,3,09,32,58,305,17*4C
$GPGLL,,,,,075410.00,V,N*4D
$GPRMC,075411.00,V,,,,,,,260921,,,N*75
$GPVTG,,,,,,,,,N*30
$GPGGA,075411.00,,,,,0,03,4.54,,,,,,*56
$GPGSA,A,1,32,08,27,,,,,,,,,,4.65,4.54,1.00*0F
$GPGSV,3,1,09,08,10,298,23,10,42,004,,18,48,138,,23,38,052,*78
$GPGSV,3,2,09,24,15,043,,25,08,123,,27,25,271,34,31,27,193,*76
$GPGSV,3,3,09,32,58,305,17*4C
$GPGLL,,,,,075411.00,V,N*4C
$GPRMC,075412.00,V,,,,,,,260921,,,N*76
$GPVTG,,,,,,,,,N*30
$GPGGA,075412.00,,,,,0,03,4.54,,,,,,*55
$GPGSA,A,1,32,08,27,,,,,,,,,,4.64,4.54,1.00*0E
$GPGSV,3,1,09,08,10,298,23,10,42,004,,18,48,138,,23,38,052,*78
$GPGSV,3,2,09,24,15,043,,25,08,123,,27,25,271,34,31,27,193,*76
$GPGSV,3,3,09,32,58,305,16*4D
$GPGLL,,,,,075412.00,V,N*4F
$GPRMC,075413.00,V,,,,,,,260921,,,N*77
$GPVTG,,,,,,,,,N*30
$GPGGA,075413.00,,,,,0,03,4.54,,,,,,*54
$GPGSA,A,1,32,08,27,,,,,,,,,,4.64,4.54,1.00*0E
$GPGSV,3,1,09,08,10,298,24,10,42,004,,18,48,138,,23,38,052,*7F
$GPGSV,3,2,09,24,15,043,,25,08,123,,27,25,271,35,31,27,193,*77
$GPGSV,3,3,09,32,58,305,15*4E
$GPGLL,,,,,075413.00,V,N*4E
$GPRMC,075414.00,V,,,,,,,260921,,,N*70
$GPVTG,,,,,,,,,N*30
$GPGGA,075414.00,,,,,0,03,4.54,,,,,,*53
$GPGSA,A,1,32,08,27,,,,,,,,,,4.64,4.54,1.00*0E
$GPGSV,3,1,09,08,10,298,24,10,42,004,,18,48,138,,23,38,052,*7F
$GPGSV,3,2,09,24,15,043,,25,08,123,,27,25,271,35,31,27,193,*77
$GPGSV,3,3,09,32,58,305,15*4E
$GPGLL,,,,,075414.00,V,N*49
$GPRMC,075415.00,V,,,,,,,260921,,,N*71
$GPVTG,,,,,,,,,N*30
$GPGGA,075415.00,,,,,0,03,4.54,,,,,,*52
$GPGSA,A,1,32,08,27,,,,,,,,,,4.64,4.54,1.00*0E
$GPGSV,3,1,09,08,10,298,25,10,42,004,,18,48,138,,23,38,052,*7E
$GPGSV,3,2,09,24,15,043,,25,08,123,,27,25,271,35,31,27,193,*77
$GPGSV,3,3,09,32,58,305,15*4E
$GPGLL,,,,,075415.00,V,N*48
$GPRMC,075416.00,V,,,,,,,260921,,,N*72
$GPVTG,,,,,,,,,N*30
$GPGGA,075416.00,,,,,0,03,4.53,,,,,,*56
$GPGSA,A,1,32,08,27,,,,,,,,,,4.64,4.53,1.00*09
$GPGSV,3,1,09,08,10,298,24,10,42,004,,18,48,138,,23,38,052,*7F
$GPGSV,3,2,09,24,15,043,,25,08,123,,27,25,271,34,31,27,193,*76
$GPGSV,3,3,09,32,58,305,15*4E
$GPGLL,,,,,075416.00,V,N*4B
$GPRMC,075417.00,V,,,,,,,260921,,,N*73
$GPVTG,,,,,,,,,N*30
$GPGGA,075417.00,,,,,0,03,4.53,,,,,,*57
$GPGSA,A,1,32,08,27,,,,,,,,,,4.64,4.53,1.00*09
$GPGSV,3,1,09,08,10,298,24,10,42,004,,18,48,138,,23,38,052,*7F
$GPGSV,3,2,09,24,15,043,,25,08,123,,27,25,271,34,31,27,193,*76
$GPGSV,3,3,09,32,58,305,14*4F
$GPGLL,,,,,075417.00,V,N*4A
$GPRMC,075418.00,V,,,,,,,260921,,,N*7C
$GPVTG,,,,,,,,,N*30
$GPGGA,075418.00,,,,,0,03,4.53,,,,,,*58
$GPGSA,A,1,32,08,27,,,,,,,,,,4.64,4.53,1.00*09
$GPGSV,3,1,09,08,10,298,25,10,42,004,,18,48,138,,23,38,052,*7E
$GPGSV,3,2,09,24,15,043,,25,08,123,,27,25,271,34,31,27,193,*76
$GPGSV,3,3,09,32,58,305,14*4F
$GPGLL,,,,,075418.00,V,N*45
$GPRMC,075419.00,V,,,,,,,260921,,,N*7D
$GPVTG,,,,,,,,,N*30
$GPGGA,075419.00,,,,,0,03,4.53,,,,,,*59
$GPGSA,A,1,32,08,27,,,,,,,,,,4.64,4.53,1.00*09
$GPGSV,3,1,09,08,10,298,25,10,42,004,,18,48,138,,23,38,052,*7E
$GPGSV,3,2,09,24,15,043,25,25,08,123,,27,25,271,34,31,27,193,*71
$GPGSV,3,3,09,32,58,305,15*4E
$GPGLL,,,,,075419.00,V,N*44
$GPRMC,075420.00,V,,,,,,,260921,,,N*77
$GPVTG,,,,,,,,,N*30
$GPGGA,075420.00,,,,,0,03,4.53,,,,,,*53
$GPGSA,A,1,32,08,27,,,,,,,,,,4.64,4.53,1.00*09
$GPGSV,3,1,09,08,10,298,25,10,42,004,,18,48,138,,23,38,052,*7E
$GPGSV,3,2,09,24,15,043,,25,08,123,,27,25,271,34,31,27,193,28*7C
$GPGSV,3,3,09,32,58,305,14*4F
$GPGLL,,,,,075420.00,V,N*4E
$GPRMC,075421.00,V,,,,,,,260921,,,N*76
$GPVTG,,,,,,,,,N*30
$GPGGA,075421.00,,,,,0,04,4.53,,,,,,*55
$GPGSA,A,1,32,08,27,10,,,,,,,,,4.64,4.53,1.00*08
$GPGSV,3,1,09,08,10,298,25,10,42,004,16,18,48,138,,23,38,052,*79
$GPGSV,3,2,09,24,15,043,,25,08,123,,27,25,271,34,31,27,193,*76
$GPGSV,3,3,09,32,58,305,14*4F
$GPGLL,,,,,075421.00,V,N*4F
$GPRMC,075422.00,V,,,,,,,260921,,,N*75
$GPVTG,,,,,,,,,N*30
$GPGGA,075422.00,,,,,0,04,4.53,,,,,,*56
$GPGSA,A,1,32,08,27,10,,,,,,,,,4.64,4.53,1.00*08
$GPGSV,3,1,09,08,10,298,25,10,42,004,15,18,48,138,,23,38,052,*7A
$GPGSV,3,2,09,24,15,043,,25,08,123,,27,25,271,34,31,27,193,*76
$GPGSV,3,3,09,32,58,305,14*4F
$GPGLL,,,,,075422.00,V,N*4C
$GPRMC,075423.00,V,,,,,,,260921,,,N*74
$GPVTG,,,,,,,,,N*30
$GPGGA,075423.00,,,,,0,04,4.53,,,,,,*57
$GPGSA,A,1,32,08,27,10,,,,,,,,,4.64,4.53,1.00*08
$GPGSV,3,1,09,08,10,298,23,10,42,004,14,18,48,138,,23,38,052,*7D
$GPGSV,3,2,09,24,15,043,,25,08,123,,27,25,271,34,31,27,193,*76
$GPGSV,3,3,09,32,58,305,14*4F
$GPGLL,,,,,075423.00,V,N*4D
$GPRMC,075424.00,V,,,,,,,260921,,,N*73
$GPVTG,,,,,,,,,N*30
$GPGGA,075424.00,,,,,0,04,4.53,,,,,,*50
$GPGSA,A,1,32,08,27,10,,,,,,,,,4.64,4.53,1.00*08
$GPGSV,3,1,09,08,10,298,23,10,42,004,14,18,48,138,,23,38,052,*7D
$GPGSV,3,2,09,24,15,043,,25,08,123,,27,25,271,34,31,27,193,*76
$GPGSV,3,3,09,32,58,305,13*48
$GPGLL,,,,,075424.00,V,N*4A
$GPRMC,075425.00,V,,,,,,,260921,,,N*72
$GPVTG,,,,,,,,,N*30
$GPGGA,075425.00,,,,,0,04,4.53,,,,,,*51
$GPGSA,A,1,32,08,27,10,,,,,,,,,4.64,4.53,1.00*08
$GPGSV,3,1,09,08,10,298,24,10,42,004,14,18,48,138,,23,38,052,*7A
$GPGSV,3,2,09,24,15,043,,25,08,123,,27,25,271,34,31,27,193,*76
$GPGSV,3,3,09,32,58,305,11*4A
$GPGLL,,,,,075425.00,V,N*4B
$GPRMC,075426.00,V,,,,,,,260921,,,N*71
$GPVTG,,,,,,,,,N*30
$GPGGA,075426.00,,,,,0,03,4.12,,,,,,*50
$GPGSA,A,1,08,27,10,,,,,,,,,,4.24,4.12,1.00*08
$GPGSV,3,1,09,08,10,298,24,10,42,004,14,18,48,138,,23,38,052,*7A
$GPGSV,3,2,09,24,15,043,,25,08,123,,27,25,271,34,31,27,193,*76
$GPGSV,3,3,09,32,58,305,09*43
$GPGLL,,,,,075426.00,V,N*48
$GPRMC,075427.00,V,,,,,,,260921,,,N*70
$GPVTG,,,,,,,,,N*30
$GPGGA,075427.00,,,,,0,03,4.12,,,,,,*51
$GPGSA,A,1,08,27,10,,,,,,,,,,4.24,4.12,1.00*08
$GPGSV,3,1,09,08,10,298,25,10,42,004,13,18,48,138,,23,38,052,*7C
$GPGSV,3,2,09,24,15,043,,25,08,123,,27,25,271,35,31,27,193,*77
$GPGSV,3,3,09,32,58,305,09*43
$GPGLL,,,,,075427.00,V,N*49
$GPRMC,075428.00,V,,,,,,,260921,,,N*7F
$GPVTG,,,,,,,,,N*30
$GPGGA,075428.00,,,,,0,04,7.37,,,,,,*5D
$GPGSA,A,1,32,08,27,10,,,,,,,,,8.86,7.37,4.91*04
$GPGSV,3,1,09,08,10,298,24,10,42,004,14,18,48,138,,23,38,052,*7A
$GPGSV,3,2,09,24,15,043,,25,08,123,,27,25,271,34,31,27,193,*76
$GPGSV,3,3,09,32,58,305,10*4B
$GPGLL,,,,,075428.00,V,N*46
$GPRMC,075429.00,A,1629.52661,N,08039.19195,E,3.026,,260921,,,A*79
$GPVTG,,T,,M,3.026,N,5.603,K,A*24
$GPGGA,075429.00,1629.52661,N,08039.19195,E,1,04,7.36,9.3,M,-76.7,M,,*7B
$GPGSA,A,3,32,08,27,10,,,,,,,,,8.85,7.36,4.91*04
$GPGSV,3,1,09,08,10,298,24,10,42,004,14,18,48,138,,23,38,052,*7A
$GPGSV,3,2,09,24,15,043,,25,08,123,,27,25,271,34,31,27,193,*76
$GPGSV,3,3,09,32,58,305,12*49
$GPGLL,1629.52661,N,08039.19195,E,075429.00,A,A*69
$GPRMC,075430.00,A,1629.52680,N,08039.19476,E,5.819,,260921,,,A*74
$GPVTG,,T,,M,5.819,N,10.777,K,A*10
$GPGGA,075430.00,1629.52680,N,08039.19476,E,1,04,7.36,9.4,M,-76.7,M,,*73
$GPGSA,A,3,32,08,27,10,,,,,,,,,8.84,7.36,4.91*05
$GPGSV,3,1,09,08,10,298,24,10,42,004,14,18,48,138,,23,38,052,*7A
$GPGSV,3,2,09,24,15,043,,25,08,123,,27,25,271,34,31,27,193,*76
$GPGSV,3,3,09,32,58,305,10*4B
$GPGLL,1629.52680,N,08039.19476,E,075430.00,A,A*66
$GPRMC,075431.00,A,1629.52707,N,08039.19587,E,4.519,,260921,,,A*78
$GPVTG,,T,,M,4.519,N,8.369,K,A*2E
$GPGGA,075431.00,1629.52707,N,08039.19587,E,1,04,7.35,10.3,M,-76.7,M,,*4F
$GPGSA,A,3,32,08,27,10,,,,,,,,,8.84,7.35,4.90*07
$GPGSV,3,1,09,08,10,298,23,10,42,004,13,18,48,138,,23,38,052,*7A
$GPGSV,3,2,09,24,15,043,,25,08,123,,27,25,271,34,31,27,193,*76
$GPGSV,3,3,09,32,58,305,10*4B
$GPGLL,1629.52707,N,08039.19587,E,075431.00,A,A*66
$GPRMC,075432.00,V,,,,,,,260921,,,N*74
$GPVTG,,,,,,,,,N*30
$GPGGA,075432.00,,,,,0,04,4.12,,,,,,*52
$GPGSA,A,1,32,08,27,10,,,,,,,,,4.24,4.12,1.00*09
$GPGSV,3,1,09,08,10,298,23,10,42,004,11,18,48,138,,23,38,052,*78
$GPGSV,3,2,09,24,15,043,,25,08,123,,27,25,271,34,31,27,193,*76
$GPGSV,3,3,09,32,58,305,12*49
$GPGLL,,,,,075432.00,V,N*4D
$GPRMC,075433.00,V,,,,,,,260921,,,N*75
$GPVTG,,,,,,,,,N*30
$GPGGA,075433.00,,,,,0,04,4.12,,,,,,*53
$GPGSA,A,1,32,08,27,10,,,,,,,,,4.24,4.12,1.00*09
$GPGSV,3,1,09,08,10,298,23,10,42,004,12,18,48,138,,23,38,052,*7B
$GPGSV,3,2,09,24,15,043,,25,08,123,,27,25,271,35,31,27,193,*77
$GPGSV,3,3,09,32,58,305,15*4E
$GPGLL,,,,,075433.00,V,N*4C
$GPRMC,075434.00,V,,,,,,,260921,,,N*72
$GPVTG,,,,,,,,,N*30
$GPGGA,075434.00,,,,,0,04,4.12,,,,,,*54
$GPGSA,A,1,32,08,27,10,,,,,,,,,4.24,4.12,1.00*09
$GPGSV,3,1,09,08,10,298,22,10,42,004,10,18,48,138,,23,38,052,*78
$GPGSV,3,2,09,24,15,043,,25,08,123,,27,25,271,34,31,27,193,*76
$GPGSV,3,3,09,32,58,305,14*4F
$GPGLL,,,,,075434.00,V,N*4B
$GPRMC,075435.00,V,,,,,,,260921,,,N*73
$GPVTG,,,,,,,,,N*30
$GPGGA,075435.00,,,,,0,04,4.12,,,,,,*55
$GPGSA,A,1,32,08,27,10,,,,,,,,,4.24,4.12,1.00*09
$GPGSV,3,1,09,08,10,298,22,10,42,004,13,18,48,138,,23,38,052,*7B
$GPGSV,3,2,09,24,15,043,,25,08,123,,27,25,271,34,31,27,193,*76
$GPGSV,3,3,09,32,58,305,13*48
$GPGLL,,,,,075435.00,V,N*4A
$GPRMC,075436.00,V,,,,,,,260921,,,N*70
$GPVTG,,,,,,,,,N*30
$GPGGA,075436.00,,,,,0,04,4.12,,,,,,*56
$GPGSA,A,1,32,08,27,10,,,,,,,,,4.24,4.12,1.00*09
$GPGSV,3,1,09,08,10,298,22,10,42,004,14,18,48,138,,23,38,052,*7C
$GPGSV,3,2,09,24,15,043,,25,08,123,,27,25,271,34,31,27,193,*76
$GPGSV,3,3,09,32,58,305,12*49
$GPGLL,,,,,075436.00,V,N*49
$GPRMC,075437.00,V,,,,,,,260921,,,N*71
$GPVTG,,,,,,,,,N*30
$GPGGA,075437.00,,,,,0,04,4.12,,,,,,*57
$GPGSA,A,1,32,08,27,10,,,,,,,,,4.24,4.12,1.00*09
$GPGSV,3,1,09,08,10,298,22,10,42,004,14,18,48,138,,23,38,052,*7C
$GPGSV,3,2,09,24,15,043,,25,08,123,,27,25,271,34,31,27,193,*76
$GPGSV,3,3,09,32,58,305,12*49
$GPGLL,,,,,075437.00,V,N*48
$GPRMC,075438.00,V,,,,,,,260921,,,N*7E
$GPVTG,,,,,,,,,N*30
$GPGGA,075438.00,,,,,0,04,7.32,,,,,,*59
$GPGSA,A,1,32,08,27,10,,,,,,,,,8.79,7.32,4.88*09
$GPGSV,3,1,09,08,10,298,22,10,42,004,13,18,48,138,,23,38,052,*7B
$GPGSV,3,2,09,24,15,043,,25,08,123,,27,25,271,35,31,27,193,*77
$GPGSV,3,3,09,32,58,305,12*49
$GPGLL,,,,,075438.00,V,N*47
$GPRMC,075439.00,V,,,,,,,260921,,,N*7F
$GPVTG,,,,,,,,,N*30
$GPGGA,075439.00,,,,,0,04,7.31,,,,,,*5B
$GPGSA,A,1,32,08,27,10,,,,,,,,,8.79,7.31,4.88*0A
$GPGSV,3,1,09,08,10,298,22,10,42,004,14,18,48,138,,23,38,052,*7C
$GPGSV,3,2,09,24,15,043,,25,08,123,,27,25,271,34,31,27,193,*76
$GPGSV,3,3,09,32,58,305,11*4A
$GPGLL,,,,,075439.00,V,N*46
$GPRMC,075440.00,A,1629.52281,N,08039.20193,E,2.633,,260921,,,A*73
$GPVTG,,T,,M,2.633,N,4.877,K,A*2B
$GPGGA,075440.00,1629.52281,N,08039.20193,E,1,04,7.31,5.0,M,-76.7,M,,*7A
$GPGSA,A,3,32,08,27,10,,,,,,,,,8.78,7.31,4.87*06
$GPGSV,3,1,09,08,10,298,23,10,42,004,14,18,48,138,,23,38,052,*7D
$GPGSV,3,2,09,24,15,043,,25,08,123,,27,25,271,35,31,27,193,*77
$GPGSV,3,3,09,32,58,305,10*4B
$GPGLL,1629.52281,N,08039.20193,E,075440.00,A,A*60
$GPRMC,075441.00,A,1629.52168,N,08039.20295,E,2.952,,260921,,,A*7B
$GPVTG,,T,,M,2.952,N,5.467,K,A*2F
$GPGGA,075441.00,1629.52168,N,08039.20295,E,1,04,7.30,1.8,M,-76.7,M,,*77
$GPGSA,A,3,32,08,27,10,,,,,,,,,8.78,7.30,4.87*07
$GPGSV,3,1,09,08,10,298,22,10,42,004,11,18,48,138,,23,38,052,*79
$GPGSV,3,2,09,24,15,043,,25,08,123,,27,25,271,35,31,27,193,*77
$GPGSV,3,3,09,32,58,305,10*4B
$GPGLL,1629.52168,N,08039.20295,E,075441.00,A,A*60
$GPRMC,075442.00,A,1629.52033,N,08039.20431,E,3.397,,260921,,,A*7D
$GPVTG,,T,,M,3.397,N,6.291,K,A*21
$GPGGA,075442.00,1629.52033,N,08039.20431,E,1,04,7.30,-2.6,M,-76.7,M,,*53
$GPGSA,A,3,32,08,27,10,,,,,,,,,8.77,7.30,4.87*08
$GPGSV,3,1,09,08,10,298,23,10,42,004,11,18,48,138,,23,38,052,*78
$GPGSV,3,2,09,24,15,043,,25,08,123,,27,25,271,35,31,27,193,*77
$GPGSV,3,3,09,32,58,305,11*4A
$GPGLL,1629.52033,N,08039.20431,E,075442.00,A,A*64
$GPRMC,075443.00,A,1629.51898,N,08039.20504,E,4.261,,260921,,,A*7E
$GPVTG,,T,,M,4.261,N,7.891,K,A*25
$GPGGA,075443.00,1629.51898,N,08039.20504,E,1,04,7.29,-4.8,M,-76.7,M,,*5F
$GPGSA,A,3,32,08,27,10,,,,,,,,,8.76,7.29,4.86*00
$GPGSV,3,1,09,08,10,298,22,10,42,004,10,18,48,138,,23,38,052,*78
$GPGSV,3,2,09,24,15,043,,25,08,123,,27,25,271,35,31,27,193,*77
$GPGSV,3,3,09,32,58,305,13*48
$GPGLL,1629.51898,N,08039.20504,E,075443.00,A,A*68
$GPRMC,075444.00,A,1629.51833,N,08039.20504,E,3.134,,260921,,,A*7C
$GPVTG,,T,,M,3.134,N,5.804,K,A*2F
$GPGGA,075444.00,1629.51833,N,08039.20504,E,1,04,7.28,-7.8,M,-76.7,M,,*5B
$GPGSA,A,3,32,08,27,10,,,,,,,,,8.76,7.28,4.86*01
$GPGSV,3,1,09,08,10,298,23,10,42,004,10,18,48,138,,23,38,052,*79
$GPGSV,3,2,09,24,15,043,,25,08,123,,27,25,271,35,31,27,193,*77
$GPGSV,3,3,09,32,58,305,14*4F
$GPGLL,1629.51833,N,08039.20504,E,075444.00,A,A*6E
$GPRMC,075445.00,A,1629.51729,N,08039.20512,E,3.394,,260921,,,A*76
$GPVTG,,T,,M,3.394,N,6.285,K,A*27
$GPGGA,075445.00,1629.51729,N,08039.20512,E,1,04,7.28,-9.4,M,-76.7,M,,*5B
$GPGSA,A,3,32,08,27,10,,,,,,,,,8.75,7.28,4.86*02
$GPGSV,3,1,09,08,10,298,22,10,42,004,10,18,48,138,,23,38,052,*78
$GPGSV,3,2,09,24,15,043,,25,08,123,,27,25,271,35,31,27,193,*77
$GPGSV,3,3,09,32,58,305,14*4F
$GPGLL,1629.51729,N,08039.20512,E,075445.00,A,A*6C
$GPRMC,075446.00,A,1629.51576,N,08039.20504,E,3.743,,260921,,,A*74
$GPVTG,,T,,M,3.743,N,6.932,K,A*2E
$GPGGA,075446.00,1629.51576,N,08039.20504,E,1,04,7.27,-12.7,M,-76.7,M,,*61
$GPGSA,A,3,32,08,27,10,,,,,,,,,8.75,7.27,4.85*0E
$GPGSV,3,1,09,08,10,298,22,10,42,004,10,18,48,138,,23,38,052,*78
$GPGSV,3,2,09,24,15,043,,25,08,123,,27,25,271,35,31,27,193,*77
$GPGSV,3,3,09,32,58,305,14*4F
$GPGLL,1629.51576,N,08039.20504,E,075446.00,A,A*60
$GPRMC,075447.00,V,,,,,,,260921,,,N*76
$GPVTG,,,,,,,,,N*30
$GPGGA,075447.00,,,,,0,04,4.11,,,,,,*53
$GPGSA,A,1,32,08,27,10,,,,,,,,,4.23,4.11,1.00*0D
$GPGSV,3,1,09,08,10,297,21,10,42,004,10,18,48,138,,23,38,052,*74
$GPGSV,3,2,09,24,15,043,,25,08,123,,27,25,271,35,31,27,193,*77
$GPGSV,3,3,09,32,58,305,14*4F
$GPGLL,,,,,075447.00,V,N*4F
$GPRMC,075448.00,V,,,,,,,260921,,,N*79
$GPVTG,,,,,,,,,N*30
$GPGGA,075448.00,,,,,0,04,4.11,,,,,,*5C
$GPGSA,A,1,32,08,27,10,,,,,,,,,4.23,4.11,1.00*0D
$GPGSV,3,1,09,08,10,297,21,10,42,004,10,18,48,138,,23,38,052,*74
$GPGSV,3,2,09,24,15,043,,25,08,123,,27,25,271,35,31,27,193,*77
$GPGSV,3,3,09,32,58,305,12*49
$GPGLL,,,,,075448.00,V,N*40
$GPRMC,075449.00,V,,,,,,,260921,,,N*78
$GPVTG,,,,,,,,,N*30
$GPGGA,075449.00,,,,,0,04,4.11,,,,,,*5D
$GPGSA,A,1,32,08,27,10,,,,,,,,,4.23,4.11,1.00*0D
$GPGSV,3,1,09,08,10,297,21,10,42,005,10,18,48,138,,23,38,052,*75
$GPGSV,3,2,09,24,15,043,,25,08,123,,27,25,271,35,31,27,193,*77
$GPGSV,3,3,09,32,58,305,10*4B
$GPGLL,,,,,075449.00,V,N*41
$GPRMC,075450.00,V,,,,,,,260921,,,N*70
$GPVTG,,,,,,,,,N*30
$GPGGA,075450.00,,,,,0,04,4.11,,,,,,*55
$GPGSA,A,1,32,08,27,10,,,,,,,,,4.23,4.11,1.00*0D
$GPGSV,3,1,09,08,10,297,21,10,42,005,12,18,48,138,,23,38,052,*77
$GPGSV,3,2,09,24,15,043,,25,08,123,,27,25,271,34,31,27,193,*76
$GPGSV,3,3,09,32,58,305,12*49
$GPGLL,,,,,075450.00,V,N*49
$GPRMC,075451.00,V,,,,,,,260921,,,N*71
$GPVTG,,,,,,,,,N*30
$GPGGA,075451.00,,,,,0,04,4.11,,,,,,*54
$GPGSA,A,1,32,08,27,10,,,,,,,,,4.23,4.11,1.00*0D
$GPGSV,3,1,09,08,10,297,21,10,42,005,12,18,48,138,,23,38,052,*77
$GPGSV,3,2,09,24,15,043,,25,08,123,,27,25,271,34,31,27,193,*76
$GPGSV,3,3,09,32,58,305,12*49
$GPGLL,,,,,075451.00,V,N*48
$GPRMC,075452.00,V,,,,,,,260921,,,N*72
$GPVTG,,,,,,,,,N*30
$GPGGA,075452.00,,,,,0,00,99.99,,,,,,*67
$GPGSA,A,1,,,,,,,,,,,,,99.99,99.99,99.99*30
$GPGSV,3,1,09,08,10,297,21,10,42,005,,18,48,138,,23,38,052,*74
$GPGSV,3,2,09,24,15,043,,25,08,123,,27,25,271,35,31,27,193,*77
$GPGSV,3,3,09,32,58,305,13*48
$GPGLL,,,,,075452.00,V,N*4B
$GPRMC,075453.00,V,,,,,,,260921,,,N*73
$GPVTG,,,,,,,,,N*30
$GPGGA,075453.00,,,,,0,00,99.99,,,,,,*66
$GPGSA,A,1,,,,,,,,,,,,,99.99,99.99,99.99*30
$GPGSV,3,1,09,08,10,297,21,10,42,005,,18,48,138,,23,38,052,*74
$GPGSV,3,2,09,24,15,043,,25,08,123,,27,25,271,35,31,27,193,*77
$GPGSV,3,3,09,32,58,305,11*4A
$GPGLL,,,,,075453.00,V,N*4A
$GPRMC,075454.00,V,,,,,,,260921,,,N*74
$GPVTG,,,,,,,,,N*30
$GPGGA,075454.00,,,,,0,00,99.99,,,,,,*61
$GPGSA,A,1,,,,,,,,,,,,,99.99,99.99,99.99*30
$GPGSV,3,1,09,08,10,297,21,10,42,005,06,18,48,138,,23,38,052,*72
$GPGSV,3,2,09,24,15,043,,25,08,123,,27,25,271,35,31,27,193,*77
$GPGSV,3,3,09,32,58,305,11*4A
$GPGLL,,,,,075454.00,V,N*4D
$GPRMC,075455.00,V,,,,,,,260921,,,N*75
$GPVTG,,,,,,,,,N*30
$GPGGA,075455.00,,,,,0,00,99.99,,,,,,*60
$GPGSA,A,1,,,,,,,,,,,,,99.99,99.99,99.99*30
$GPGSV,3,1,09,08,10,297,21,10,42,005,08,18,48,138,,23,38,052,*7C
$GPGSV,3,2,09,24,15,043,,25,08,123,,27,25,271,35,31,27,193,*77
$GPGSV,3,3,09,32,58,305,11*4A
$GPGLL,,,,,075455.00,V,N*4C
$GPRMC,075456.00,V,,,,,,,260921,,,N*76
$GPVTG,,,,,,,,,N*30
$GPGGA,075456.00,,,,,0,00,99.99,,,,,,*63
$GPGSA,A,1,,,,,,,,,,,,,99.99,99.99,99.99*30
$GPGSV,3,1,09,08,10,297,20,10,42,005,11,18,48,138,,23,38,052,*75
$GPGSV,3,2,09,24,15,043,,25,08,123,,27,25,271,35,31,27,193,*77
$GPGSV,3,3,09,32,58,305,14*4F
$GPGLL,,,,,075456.00,V,N*4F
$GPRMC,075457.00,V,,,,,,,260921,,,N*77
$GPVTG,,,,,,,,,N*30
$GPGGA,075457.00,,,,,0,00,99.99,,,,,,*62
$GPGSA,A,1,,,,,,,,,,,,,99.99,99.99,99.99*30
$GPGSV,3,1,09,08,10,297,19,10,42,005,14,18,47,139,,23,38,052,*74
$GPGSV,3,2,09,24,15,043,,25,08,123,,27,25,271,35,31,27,193,*77
$GPGSV,3,3,09,32,58,305,15*4E
$GPGLL,,,,,075457.00,V,N*4E
$GPRMC,075458.00,V,,,,,,,260921,,,N*78
$GPVTG,,,,,,,,,N*30
$GPGGA,075458.00,,,,,0,04,4.11,,,,,,*5D
$GPGSA,A,1,32,08,27,10,,,,,,,,,4.23,4.11,1.00*0D
$GPGSV,3,1,09,08,10,297,19,10,42,005,15,18,47,139,,23,38,052,*75
$GPGSV,3,2,09,24,15,043,,25,08,123,,27,25,271,35,31,27,193,*77
$GPGSV,3,3,09,32,58,305,16*4D
$GPGLL,,,,,075458.00,V,N*41
$GPRMC,075459.00,V,,,,,,,260921,,,N*79
$GPVTG,,,,,,,,,N*30
$GPGGA,075459.00,,,,,0,04,7.21,,,,,,*5C
$GPGSA,A,1,32,08,27,10,,,,,,,,,8.67,7.21,4.81*0D
$GPGSV,3,1,09,08,10,297,19,10,42,005,14,18,47,139,,23,38,052,*74
$GPGSV,3,2,09,24,15,043,,25,08,123,,27,25,271,35,31,27,193,*77
$GPGSV,3,3,09,32,58,305,15*4E
$GPGLL,,,,,075459.00,V,N*40
$GPRMC,075500.00,V,,,,,,,260921,,,N*74
$GPVTG,,,,,,,,,N*30
$GPGGA,075500.00,,,,,0,04,7.20,,,,,,*50
$GPGSA,A,1,32,08,27,10,,,,,,,,,8.66,7.20,4.81*0D
$GPGSV,3,1,09,08,10,297,18,10,42,005,14,18,47,139,,23,38,052,*75
$GPGSV,3,2,09,24,15,043,,25,08,123,,27,25,271,35,31,27,193,*77
$GPGSV,3,3,09,32,58,305,15*4E
$GPGLL,,,,,075500.00,V,N*4D
$GPRMC,075501.00,V,,,,,,,260921,,,N*75
$GPVTG,,,,,,,,,N*30
$GPGGA,075501.00,,,,,0,04,7.20,,,,,,*51
$GPGSA,A,1,32,08,27,10,,,,,,,,,8.66,7.20,4.81*0D
$GPGSV,3,1,09,08,10,297,18,10,42,005,14,18,47,139,,23,38,052,*75
$GPGSV,3,2,09,24,15,043,,25,08,123,,27,25,271,35,31,27,193,*77
$GPGSV,3,3,09,32,58,305,15*4E
$GPGLL,,,,,075501.00,V,N*4C
$GPRMC,075502.00,V,,,,,,,260921,,,N*76
$GPVTG,,,,,,,,,N*30
$GPGGA,075502.00,,,,,0,04,7.19,,,,,,*58
$GPGSA,A,1,32,08,27,10,,,,,,,,,8.65,7.19,4.80*05
$GPGSV,3,1,09,08,10,297,18,10,42,005,15,18,47,139,,23,38,052,*74
$GPGSV,3,2,09,24,15,043,,25,08,123,,27,25,271,35,31,27,193,*77
$GPGSV,3,3,09,32,58,305,14*4F
$GPGLL,,,,,075502.00,V,N*4F
$GPRMC,075503.00,A,1629.51864,N,08039.19935,E,2.914,,260921,,,A*73
$GPVTG,,T,,M,2.914,N,5.396,K,A*24
$GPGGA,075503.00,1629.51864,N,08039.19935,E,1,04,7.19,-29.4,M,-76.7,M,,*6D
$GPGSA,A,3,32,08,27,10,,,,,,,,,8.64,7.19,4.80*06
$GPGSV,3,1,09,08,10,297,17,10,42,005,14,18,47,139,,23,38,052,*7A
$GPGSV,3,2,09,24,14,043,,25,08,123,,27,25,271,35,31,27,193,*76
$GPGSV,3,3,09,32,58,305,14*4F
$GPGLL,1629.51864,N,08039.19935,E,075503.00,A,A*6A
$GPRMC,075504.00,A,1629.51743,N,08039.20035,E,2.841,,260921,,,A*7C
$GPVTG,,T,,M,2.841,N,5.262,K,A*2F
$GPGGA,075504.00,1629.51743,N,08039.20035,E,1,04,7.18,-30.5,M,-76.7,M,,*6B
$GPGSA,A,3,32,08,27,10,,,,,,,,,8.64,7.18,4.80*07
$GPGSV,3,1,09,08,10,297,16,10,42,005,13,18,47,139,,23,38,052,*7C
$GPGSV,3,2,09,24,14,043,,25,09,123,,27,25,271,35,31,27,193,*77
$GPGSV,3,3,09,32,58,305,15*4E
$GPGLL,1629.51743,N,08039.20035,E,075504.00,A,A*64
$GPRMC,075505.00,A,1629.51802,N,08039.20020,E,0.649,,260921,,,A*77
$GPVTG,,T,,M,0.649,N,1.202,K,A*29
$GPGGA,075505.00,1629.51802,N,08039.20020,E,1,04,7.18,-33.0,M,-76.7,M,,*62
$GPGSA,A,3,32,08,27,10,,,,,,,,,8.63,7.18,4.79*06
$GPGSV,3,1,09,08,10,297,17,10,42,005,13,18,47,139,,23,38,052,*7D
$GPGSV,3,2,09,24,14,043,,25,09,123,,27,25,271,35,31,27,193,*77
$GPGSV,3,3,09,32,58,305,16*4D
$GPGLL,1629.51802,N,08039.20020,E,075505.00,A,A*6B
$GPRMC,075506.00,V,,,,,,,260921,,,N*72
$GPVTG,,,,,,,,,N*30
$GPGGA,075506.00,,,,,0,04,4.10,,,,,,*56
$GPGSA,A,1,32,08,27,10,,,,,,,,,4.22,4.10,1.00*0D
$GPGSV,3,1,09,08,10,297,17,10,42,005,13,18,47,139,,23,38,052,*7D
$GPGSV,3,2,09,24,14,043,,25,09,123,,27,25,270,35,31,27,193,*76
$GPGSV,3,3,09,32,58,305,15*4E
$GPGLL,,,,,075506.00,V,N*4B
$GPRMC,075507.00,V,,,,,,,260921,,,N*73
$GPVTG,,,,,,,,,N*30
$GPGGA,075507.00,,,,,0,04,4.10,,,,,,*57
$GPGSA,A,1,32,08,27,10,,,,,,,,,4.22,4.10,1.00*0D
$GPGSV,3,1,09,08,10,297,18,10,42,005,13,18,47,139,,23,38,052,*72
$GPGSV,3,2,09,24,14,043,,25,09,123,,27,25,270,35,31,27,193,*76
$GPGSV,3,3,09,32,58,305,13*48
$GPGLL,,,,,075507.00,V,N*4A
$GPRMC,075508.00,V,,,,,,,260921,,,N*7C
$GPVTG,,,,,,,,,N*30
$GPGGA,075508.00,,,,,0,04,4.10,,,,,,*58
$GPGSA,A,1,32,08,27,10,,,,,,,,,4.22,4.10,1.00*0D
$GPGSV,3,1,09,08,10,297,17,10,42,005,11,18,47,139,,23,38,052,*7F
$GPGSV,3,2,09,24,14,043,,25,09,123,,27,25,270,34,31,27,193,*77
$GPGSV,3,3,09,32,58,305,13*48
$GPGLL,,,,,075508.00,V,N*45
$GPRMC,075509.00,V,,,,,,,260921,,,N*7D
$GPVTG,,,,,,,,,N*30
$GPGGA,075509.00,,,,,0,04,4.10,,,,,,*59
$GPGSA,A,1,32,08,27,10,,,,,,,,,4.22,4.10,1.00*0D
$GPGSV,3,1,09,08,10,297,16,10,42,005,12,18,47,139,,23,38,052,*7D
$GPGSV,3,2,09,24,14,043,,25,09,123,,27,25,270,34,31,27,193,*77
$GPGSV,3,3,09,32,58,305,15*4E
$GPGLL,,,,,075509.00,V,N*44
$GPRMC,075510.00,V,,,,,,,260921,,,N*75
$GPVTG,,,,,,,,,N*30
$GPGGA,075510.00,,,,,0,04,4.10,,,,,,*51
$GPGSA,A,1,32,08,27,10,,,,,,,,,4.22,4.10,1.00*0D
$GPGSV,3,1,09,08,10,297,17,10,42,005,12,18,47,139,,23,38,052,*7C
$GPGSV,3,2,09,24,14,043,,25,09,123,,27,25,270,34,31,27,193,*77
$GPGSV,3,3,09,32,58,305,16*4D
$GPGLL,,,,,075510.00,V,N*4C
$GPRMC,075511.00,V,,,,,,,260921,,,N*74
$GPVTG,,,,,,,,,N*30
$GPGGA,075511.00,,,,,0,04,4.10,,,,,,*50
$GPGSA,A,1,32,08,27,10,,,,,,,,,4.22,4.10,1.00*0D
$GPGSV,3,1,09,08,10,297,17,10,42,005,10,18,47,139,,23,38,052,*7E
$GPGSV,3,2,09,24,14,043,,25,09,123,,27,25,270,35,31,27,193,*76
$GPGSV,3,3,09,32,58,306,15*4D
$GPGLL,,,,,075511.00,V,N*4D
$GPRMC,075512.00,V,,,,,,,260921,,,N*77
$GPVTG,,,,,,,,,N*30
$GPGGA,075512.00,,,,,0,03,4.52,,,,,,*52
$GPGSA,A,1,32,08,27,,,,,,,,,,4.63,4.52,1.00*0F
$GPGSV,3,1,09,08,10,297,17,10,42,005,07,18,47,139,,23,38,052,*78
$GPGSV,3,2,09,24,14,043,,25,09,123,,27,25,270,35,31,27,193,*76
$GPGSV,3,3,09,32,58,306,16*4E
$GPGLL,,,,,075512.00,V,N*4E
$GPRMC,075513.00,V,,,,,,,260921,,,N*76
$GPVTG,,,,,,,,,N*30
$GPGGA,075513.00,,,,,0,03,4.52,,,,,,*53
$GPGSA,A,1,32,08,27,,,,,,,,,,4.63,4.52,1.00*0F
$GPGSV,3,1,09,08,10,297,17,10,42,005,08,18,47,139,,23,38,052,*77
$GPGSV,3,2,09,24,14,043,,25,09,123,,27,25,270,34,31,27,193,*77
$GPGSV,3,3,09,32,58,306,16*4E
$GPGLL,,,,,075513.00,V,N*4F
$GPRMC,075514.00,V,,,,,,,260921,,,N*71
$GPVTG,,,,,,,,,N*30
$GPGGA,075514.00,,,,,0,03,4.52,,,,,,*54
$GPGSA,A,1,32,08,27,,,,,,,,,,4.63,4.52,1.00*0F
$GPGSV,3,1,09,08,10,297,18,10,42,005,08,18,47,139,,23,38,052,*78
$GPGSV,3,2,09,24,14,043,,25,09,123,,27,25,270,35,31,27,193,*76
$GPGSV,3,3,09,32,58,306,15*4D
$GPGLL,,,,,075514.00,V,N*48
$GPRMC,075515.00,V,,,,,,,260921,,,N*70
$GPVTG,,,,,,,,,N*30
$GPGGA,075515.00,,,,,0,03,4.52,,,,,,*55
$GPGSA,A,1,32,08,27,,,,,,,,,,4.63,4.52,1.00*0F
$GPGSV,3,1,09,08,10,297,19,10,42,005,08,18,47,139,,23,38,052,*79
$GPGSV,3,2,09,24,14,043,,25,09,123,,27,25,270,34,31,27,193,*77
$GPGSV,3,3,09,32,58,306,14*4C
$GPGLL,,,,,075515.00,V,N*49
$GPRMC,075516.00,V,,,,,,,260921,,,N*73
$GPVTG,,,,,,,,,N*30
$GPGGA,075516.00,,,,,0,00,99.99,,,,,,*66
$GPGSA,A,1,,,,,,,,,,,,,99.99,99.99,99.99*30
$GPGSV,3,1,09,08,10,297,18,10,42,005,,18,47,139,,23,38,052,*70
$GPGSV,3,2,09,24,14,043,,25,09,123,,27,25,270,34,31,27,193,*77
$GPGSV,3,3,09,32,58,306,14*4C
$GPGLL,,,,,075516.00,V,N*4A
$GPRMC,075517.00,V,,,,,,,260921,,,N*72
$GPVTG,,,,,,,,,N*30
$GPGGA,075517.00,,,,,0,00,99.99,,,,,,*67
$GPGSA,A,1,,,,,,,,,,,,,99.99,99.99,99.99*30
$GPGSV,3,1,09,08,10,297,18,10,42,005,,18,47,139,,23,38,052,*70
$GPGSV,3,2,09,24,14,043,,25,09,123,,27,25,270,34,31,27,193,*77
$GPGSV,3,3,09,32,58,306,14*4C
$GPGLL,,,,,075517.00,V,N*4B
$GPRMC,075518.00,V,,,,,,,260921,,,N*7D
$GPVTG,,,,,,,,,N*30
$GPGGA,075518.00,,,,,0,00,99.99,,,,,,*68
$GPGSA,A,1,,,,,,,,,,,,,99.99,99.99,99.99*30
$GPGSV,3,1,09,08,10,297,17,10,42,005,,18,47,139,,23,38,052,*7F
$GPGSV,3,2,09,24,14,043,,25,09,123,,27,25,270,34,31,27,193,*77
$GPGSV,3,3,09,32,58,306,14*4C
$GPGLL,,,,,075518.00,V,N*44
$GPRMC,075519.00,V,,,,,,,260921,,,N*7C
$GPVTG,,,,,,,,,N*30
$GPGGA,075519.00,,,,,0,00,99.99,,,,,,*69
$GPGSA,A,1,,,,,,,,,,,,,99.99,99.99,99.99*30
$GPGSV,3,1,09,08,10,297,17,10,42,005,,18,47,139,,23,38,052,*7F
$GPGSV,3,2,09,24,14,043,,25,09,123,,27,25,270,34,31,27,193,*77
$GPGSV,3,3,09,32,58,306,15*4D
$GPGLL,,,,,075519.00,V,N*45
$GPRMC,075520.00,V,,,,,,,260921,,,N*76
$GPVTG,,,,,,,,,N*30
$GPGGA,075520.00,,,,,0,00,99.99,,,,,,*63
$GPGSA,A,1,,,,,,,,,,,,,99.99,99.99,99.99*30
$GPGSV,3,1,09,08,10,297,18,10,42,005,,18,47,139,,23,38,052,*70
$GPGSV,3,2,09,24,14,043,,25,09,123,,27,25,270,34,31,27,193,*77
$GPGSV,3,3,09,32,58,306,15*4D
$GPGLL,,,,,075520.00,V,N*4F
$GPRMC,075521.00,V,,,,,,,260921,,,N*77
$GPVTG,,,,,,,,,N*30
$GPGGA,075521.00,,,,,0,03,4.52,,,,,,*52
$GPGSA,A,1,32,08,27,,,,,,,,,,4.63,4.52,1.00*0F
$GPGSV,3,1,09,08,10,297,17,10,42,005,,18,47,139,,23,38,052,*7F
$GPGSV,3,2,09,24,14,043,,25,09,123,,27,25,270,34,31,27,193,*77
$GPGSV,3,3,09,32,58,306,16*4E
$GPGLL,,,,,075521.00,V,N*4E
$GPRMC,075522.00,V,,,,,,,260921,,,N*74
$GPVTG,,,,,,,,,N*30
$GPGGA,075522.00,,,,,0,03,4.52,,,,,,*51
$GPGSA,A,1,32,08,27,,,,,,,,,,4.63,4.52,1.00*0F
$GPGSV,3,1,09,08,10,297,17,10,42,005,,18,47,139,,23,38,052,*7F
$GPGSV,3,2,09,24,14,043,,25,09,123,,27,25,270,34,31,27,193,*77
$GPGSV,3,3,09,32,58,306,16*4E
$GPGLL,,,,,075522.00,V,N*4D
$GPRMC,075523.00,V,,,,,,,260921,,,N*75
$GPVTG,,,,,,,,,N*30
$GPGGA,075523.00,,,,,0,03,4.52,,,,,,*50
$GPGSA,A,1,32,08,27,,,,,,,,,,4.63,4.52,1.00*0F
$GPGSV,3,1,09,08,10,297,18,10,42,005,,18,47,139,,23,38,052,*70
$GPGSV,3,2,09,24,14,043,,25,09,123,,27,25,270,34,31,27,193,*77
$GPGSV,3,3,09,32,58,306,16*4E
$GPGLL,,,,,075523.00,V,N*4C
$GPRMC,075524.00,V,,,,,,,260921,,,N*72
$GPVTG,,,,,,,,,N*30
$GPGGA,075524.00,,,,,0,03,4.52,,,,,,*57
$GPGSA,A,1,32,08,27,,,,,,,,,,4.63,4.52,1.00*0F
$GPGSV,3,1,09,08,10,297,18,10,42,005,,18,47,139,,23,38,052,*70
$GPGSV,3,2,09,24,14,043,,25,09,123,,27,25,270,34,31,27,193,*77
$GPGSV,3,3,09,32,58,306,15*4D
$GPGLL,,,,,075524.00,V,N*4B
$GPRMC,075525.00,V,,,,,,,260921,,,N*73
$GPVTG,,,,,,,,,N*30
$GPGGA,075525.00,,,,,0,03,4.52,,,,,,*56
$GPGSA,A,1,32,08,27,,,,,,,,,,4.63,4.52,1.00*0F
$GPGSV,3,1,09,08,10,297,18,10,42,005,,18,47,139,,23,38,052,*70
$GPGSV,3,2,09,24,14,043,,25,09,123,,27,25,270,34,31,27,193,*77
$GPGSV,3,3,09,32,58,306,14*4C
$GPGLL,,,,,075525.00,V,N*4A
$GPRMC,075526.00,V,,,,,,,260921,,,N*70
$GPVTG,,,,,,,,,N*30
$GPGGA,075526.00,,,,,0,03,4.52,,,,,,*55
$GPGSA,A,1,32,08,27,,,,,,,,,,4.63,4.52,1.00*0F
$GPGSV,3,1,09,08,10,297,18,10,42,005,,18,47,139,,23,38,052,*70
$GPGSV,3,2,09,24,14,043,,25,09,123,,27,25,270,34,31,27,193,*77
$GPGSV,3,3,09,32,58,306,12*4A
$GPGLL,,,,,075526.00,V,N*49
$GPRMC,075527.00,V,,,,,,,260921,,,N*71
$GPVTG,,,,,,,,,N*30
$GPGGA,075527.00,,,,,0,03,4.52,,,,,,*54
$GPGSA,A,1,32,08,27,,,,,,,,,,4.63,4.52,1.00*0F
$GPGSV,3,1,09,08,10,297,18,10,42,005,,18,47,139,,23,38,052,*70
$GPGSV,3,2,09,24,14,043,,25,09,123,,27,25,270,34,31,27,193,*77
$GPGSV,3,3,09,32,58,306,10*48
$GPGLL,,,,,075527.00,V,N*48
$GPRMC,075528.00,V,,,,,,,260921,,,N*7E
$GPVTG,,,,,,,,,N*30
$GPGGA,075528.00,,,,,0,00,99.99,,,,,,*6B
$GPGSA,A,1,,,,,,,,,,,,,99.99,99.99,99.99*30
$GPGSV,3,1,09,08,10,297,18,10,42,005,,18,47,139,,23,38,052,*70
$GPGSV,3,2,09,24,14,043,,25,09,123,,27,25,270,34,31,27,193,*77
$GPGSV,3,3,09,32,58,306,08*41
$GPGLL,,,,,075528.00,V,N*47
$GPRMC,075529.00,V,,,,,,,260921,,,N*7F
$GPVTG,,,,,,,,,N*30
$GPGGA,075529.00,,,,,0,00,99.99,,,,,,*6A
$GPGSA,A,1,,,,,,,,,,,,,99.99,99.99,99.99*30
$GPGSV,3,1,09,08,10,297,17,10,42,005,,18,47,139,,23,38,052,*7F
$GPGSV,3,2,09,24,14,043,,25,09,123,,27,25,270,35,31,27,193,*76
$GPGSV,3,3,09,32,58,306,08*41
$GPGLL,,,,,075529.00,V,N*46
$GPRMC,075530.00,V,,,,,,,260921,,,N*77
$GPVTG,,,,,,,,,N*30
$GPGGA,075530.00,,,,,0,00,99.99,,,,,,*62
$GPGSA,A,1,,,,,,,,,,,,,99.99,99.99,99.99*30
$GPGSV,3,1,09,08,10,297,16,10,42,005,,18,47,139,,23,38,052,*7E
$GPGSV,3,2,09,24,14,043,,25,09,123,,27,25,270,34,31,27,193,*77
$GPGSV,3,3,09,32,58,306,07*4E
$GPGLL,,,,,075530.00,V,N*4E
$GPRMC,075531.00,V,,,,,,,260921,,,N*76
$GPVTG,,,,,,,,,N*30
$GPGGA,075531.00,,,,,0,00,99.99,,,,,,*63
$GPGSA,A,1,,,,,,,,,,,,,99.99,99.99,99.99*30
$GPGSV,3,1,09,08,10,297,16,10,42,005,,18,47,139,,23,38,052,*7E
$GPGSV,3,2,09,24,14,043,,25,09,123,,27,25,270,34,31,27,193,*77
$GPGSV,3,3,09,32,58,306,*49
$GPGLL,,,,,075531.00,V,N*4F
$GPRMC,075532.00,V,,,,,,,260921,,,N*75
$GPVTG,,,,,,,,,N*30
$GPGGA,075532.00,,,,,0,00,99.99,,,,,,*60
$GPGSA,A,1,,,,,,,,,,,,,99.99,99.99,99.99*30
$GPGSV,3,1,09,08,10,297,15,10,42,005,,18,47,139,,23,38,052,*7D
$GPGSV,3,2,09,24,14,043,,25,09,123,,27,25,270,34,31,27,193,*77
$GPGSV,3,3,09,32,58,306,*49
$GPGLL,,,,,075532.00,V,N*4C
$GPRMC,075533.00,V,,,,,,,260921,,,N*74
$GPVTG,,,,,,,,,N*30
$GPGGA,075533.00,,,,,0,00,99.99,,,,,,*61
$GPGSA,A,1,,,,,,,,,,,,,99.99,99.99,99.99*30
$GPGSV,3,1,09,08,10,297,15,10,42,005,,18,47,139,,23,38,052,*7D
$GPGSV,3,2,09,24,14,043,,25,09,123,,27,25,270,34,31,27,193,*77
$GPGSV,3,3,09,32,58,306,*49
$GPGLL,,,,,075533.00,V,N*4D
$GPRMC,075534.00,V,,,,,,,260921,,,N*73
$GPVTG,,,,,,,,,N*30
$GPGGA,075534.00,,,,,0,00,99.99,,,,,,*66
$GPGSA,A,1,,,,,,,,,,,,,99.99,99.99,99.99*30
$GPGSV,3,1,09,08,10,297,14,10,42,005,,18,47,139,,23,38,052,*7C
$GPGSV,3,2,09,24,14,043,,25,09,123,,27,25,270,34,31,27,193,*77
$GPGSV,3,3,09,32,58,306,*49
$GPGLL,,,,,075534.00,V,N*4A
$GPRMC,075535.00,V,,,,,,,260921,,,N*72
$GPVTG,,,,,,,,,N*30
$GPGGA,075535.00,,,,,0,00,99.99,,,,,,*67
$GPGSA,A,1,,,,,,,,,,,,,99.99,99.99,99.99*30
$GPGSV,3,1,09,08,10,297,14,10,42,005,,18,47,139,,23,38,052,*7C
$GPGSV,3,2,09,24,14,043,,25,09,123,,27,25,270,34,31,27,193,*77
$GPGSV,3,3,09,32,58,306,20*4B
$GPGLL,,,,,075535.00,V,N*4B
$GPRMC,075536.00,V,,,,,,,260921,,,N*71
$GPVTG,,,,,,,,,N*30
$GPGGA,075536.00,,,,,0,00,99.99,,,,,,*64
$GPGSA,A,1,,,,,,,,,,,,,99.99,99.99,99.99*30
$GPGSV,3,1,09,08,10,297,15,10,42,005,,18,47,139,,23,38,052,*7D
$GPGSV,3,2,09,24,14,043,,25,09,123,,27,25,270,34,31,27,193,*77
$GPGSV,3,3,09,32,58,306,16*4E
$GPGLL,,,,,075536.00,V,N*48
$GPRMC,075537.00,V,,,,,,,260921,,,N*70
$GPVTG,,,,,,,,,N*30
$GPGGA,075537.00,,,,,0,00,99.99,,,,,,*65
$GPGSA,A,1,,,,,,,,,,,,,99.99,99.99,99.99*30
$GPGSV,3,1,09,08,10,297,15,10,42,005,,18,47,139,,23,38,052,*7D
$GPGSV,3,2,09,24,14,043,,25,09,123,,27,25,270,34,31,27,193,*77
$GPGSV,3,3,09,32,58,306,*49
$GPGLL,,,,,075537.00,V,N*49
$GPRMC,075538.00,V,,,,,,,260921,,,N*7F
$GPVTG,,,,,,,,,N*30
$GPGGA,075538.00,,,,,0,00,99.99,,,,,,*6A
$GPGSA,A,1,,,,,,,,,,,,,99.99,99.99,99.99*30
$GPGSV,3,1,09,08,10,297,15,10,42,005,,18,47,139,,23,38,052,*7D
$GPGSV,3,2,09,24,14,043,,25,09,123,,27,25,270,34,31,27,193,*77
$GPGSV,3,3,09,32,58,306,*49
$GPGLL,,,,,075538.00,V,N*46
$GPRMC,075539.00,V,,,,,,,260921,,,N*7E
$GPVTG,,,,,,,,,N*30
$GPGGA,075539.00,,,,,0,00,99.99,,,,,,*6B
$GPGSA,A,1,,,,,,,,,,,,,99.99,99.99,99.99*30
$GPGSV,3,1,09,08,10,297,14,10,42,005,,18,47,139,,23,38,052,*7C
$GPGSV,3,2,09,24,14,043,,25,09,123,,27,25,270,34,31,27,193,*77
$GPGSV,3,3,09,32,58,306,*49
$GPGLL,,,,,075539.00,V,N*47
$GPRMC,075540.00,V,,,,,,,260921,,,N*70
$GPVTG,,,,,,,,,N*30
$GPGGA,075540.00,,,,,0,00,99.99,,,,,,*65
$GPGSA,A,1,,,,,,,,,,,,,99.99,99.99,99.99*30
$GPGSV,3,1,09,08,10,297,15,10,42,005,,18,47,139,,23,38,052,*7D
$GPGSV,3,2,09,24,14,043,,25,09,123,,27,25,270,34,31,27,193,*77
$GPGSV,3,3,09,32,58,306,*49
$GPGLL,,,,,075540.00,V,N*49
$GPRMC,075541.00,V,,,,,,,260921,,,N*71
$GPVTG,,,,,,,,,N*30
$GPGGA,075541.00,,,,,0,00,99.99,,,,,,*64
$GPGSA,A,1,,,,,,,,,,,,,99.99,99.99,99.99*30
$GPGSV,3,1,09,08,10,297,16,10,42,005,,18,47,139,,23,38,052,*7E
$GPGSV,3,2,09,24,14,043,,25,09,123,,27,25,270,34,31,27,193,*77
$GPGSV,3,3,09,32,58,306,*49
$GPGLL,,,,,075541.00,V,N*48
$GPRMC,075542.00,V,,,,,,,260921,,,N*72
$GPVTG,,,,,,,,,N*30
$GPGGA,075542.00,,,,,0,00,99.99,,,,,,*67
$GPGSA,A,1,,,,,,,,,,,,,99.99,99.99,99.99*30
$GPGSV,3,1,09,08,10,297,16,10,42,005,,18,47,139,,23,38,052,*7E
$GPGSV,3,2,09,24,14,043,,25,09,123,,27,25,270,34,31,27,193,*77
$GPGSV,3,3,09,32,58,306,*49
$GPGLL,,,,,075542.00,V,N*4B
$GPRMC,075543.00,V,,,,,,,260921,,,N*73
$GPVTG,,,,,,,,,N*30
$GPGGA,075543.00,,,,,0,00,99.99,,,,,,*66
$GPGSA,A,1,,,,,,,,,,,,,99.99,99.99,99.99*30
$GPGSV,3,1,09,08,10,297,16,10,42,005,19,18,47,139,,23,38,052,*76
$GPGSV,3,2,09,24,14,043,,25,09,123,,27,25,270,34,31,27,193,*77
$GPGSV,3,3,09,32,58,306,*49
$GPGLL,,,,,075543.00,V,N*4A
$GPRMC,075544.00,V,,,,,,,260921,,,N*74
$GPVTG,,,,,,,,,N*30
$GPGGA,075544.00,,,,,0,00,99.99,,,,,,*61
$GPGSA,A,1,,,,,,,,,,,,,99.99,99.99,99.99*30
$GPGSV,3,1,09,08,10,297,16,10,42,005,,18,47,139,22,23,38,052,*7E
$GPGSV,3,2,09,24,14,043,,25,09,123,,27,25,270,34,31,27,193,*77
$GPGSV,3,3,09,32,58,306,*49
$GPGLL,,,,,075544.00,V,N*4D
$GPRMC,075545.00,V,,,,,,,260921,,,N*75
$GPVTG,,,,,,,,,N*30
$GPGGA,075545.00,,,,,0,00,99.99,,,,,,*60
$GPGSA,A,1,,,,,,,,,,,,,99.99,99.99,99.99*30
$GPGSV,3,1,09,08,10,297,16,10,42,005,,18,47,139,,23,38,052,20*7C
$GPGSV,3,2,09,24,14,043,,25,09,123,,27,25,270,34,31,27,193,*77
$GPGSV,3,3,09,32,58,306,*49
$GPGLL,,,,,075545.00,V,N*4C
$GPRMC,075546.00,V,,,,,,,260921,,,N*76
$GPVTG,,,,,,,,,N*30
$GPGGA,075546.00,,,,,0,00,99.99,,,,,,*63
$GPGSA,A,1,,,,,,,,,,,,,99.99,99.99,99.99*30
$GPGSV,3,1,09,08,10,297,17,10,42,005,,18,47,139,,23,38,052,*7F
$GPGSV,3,2,09,24,14,043,,25,09,123,,27,25,270,34,31,27,193,*77
$GPGSV,3,3,09,32,58,306,*49
$GPGLL,,,,,075546.00,V,N*4F
$GPRMC,075547.00,V,,,,,,,260921,,,N*77
$GPVTG,,,,,,,,,N*30
$GPGGA,075547.00,,,,,0,00,99.99,,,,,,*62
$GPGSA,A,1,,,,,,,,,,,,,99.99,99.99,99.99*30
$GPGSV,3,1,09,08,10,297,17,10,42,005,,18,47,139,,23,38,052,*7F
$GPGSV,3,2,09,24,14,043,24,25,09,123,,27,25,270,34,31,27,193,*71
$GPGSV,3,3,09,32,58,306,*49
$GPGLL,,,,,075547.00,V,N*4E
$GPRMC,075548.00,V,,,,,,,260921,,,N*78
$GPVTG,,,,,,,,,N*30
$GPGGA,075548.00,,,,,0,00,99.99,,,,,,*6D
$GPGSA,A,1,,,,,,,,,,,,,99.99,99.99,99.99*30
$GPGSV,3,1,09,08,10,297,17,10,42,005,,18,47,139,,23,38,052,*7F
$GPGSV,3,2,09,24,14,043,,25,09,123,,27,25,270,34,31,27,193,*77
$GPGSV,3,3,09,32,58,306,*49
$GPGLL,,,,,075548.00,V,N*41
$GPRMC,075549.00,V,,,,,,,260921,,,N*79
$GPVTG,,,,,,,,,N*30
$GPGGA,075549.00,,,,,0,00,99.99,,,,,,*6C
$GPGSA,A,1,,,,,,,,,,,,,99.99,99.99,99.99*30
$GPGSV,3,1,09,08,10,297,18,10,42,005,,18,47,139,,23,38,052,*70
$GPGSV,3,2,09,24,14,043,,25,09,123,,27,25,270,34,31,27,193,*77
$GPGSV,3,3,09,32,58,306,*49
$GPGLL,,,,,075549.00,V,N*40
$GPRMC,075550.00,V,,,,,,,260921,,,N*71
$GPVTG,,,,,,,,,N*30
$GPGGA,075550.00,,,,,0,00,99.99,,,,,,*64
$GPGSA,A,1,,,,,,,,,,,,,99.99,99.99,99.99*30
$GPGSV,3,1,09,08,10,297,18,10,42,005,,18,47,139,,23,38,052,*70
$GPGSV,3,2,09,24,14,043,,25,09,123,25,27,25,270,34,31,27,193,*70
$GPGSV,3,3,09,32,58,306,*49
$GPGLL,,,,,075550.00,V,N*48
$GPRMC,075551.00,V,,,,,,,260921,,,N*70
$GPVTG,,,,,,,,,N*30
$GPGGA,075551.00,,,,,0,00,99.99,,,,,,*65
$GPGSA,A,1,,,,,,,,,,,,,99.99,99.99,99.99*30
$GPGSV,3,1,09,08,10,297,19,10,42,005,,18,47,139,,23,38,052,*71
$GPGSV,3,2,09,24,14,043,,25,09,123,,27,25,270,34,31,27,193,*77
$GPGSV,3,3,09,32,58,306,*49
$GPGLL,,,,,075551.00,V,N*49
$GPRMC,075552.00,V,,,,,,,260921,,,N*73
$GPVTG,,,,,,,,,N*30
$GPGGA,075552.00,,,,,0,00,99.99,,,,,,*66
$GPGSA,A,1,,,,,,,,,,,,,99.99,99.99,99.99*30
$GPGSV,3,1,09,08,10,297,19,10,42,005,,18,47,139,,23,38,052,*71
$GPGSV,3,2,09,24,14,043,,25,09,123,,27,25,270,34,31,27,193,21*74
$GPGSV,3,3,09,32,58,306,*49
$GPGLL,,,,,075552.00,V,N*4A
$GPRMC,075553.00,V,,,,,,,260921,,,N*72
$GPVTG,,,,,,,,,N*30
$GPGGA,075553.00,,,,,0,00,99.99,,,,,,*67
$GPGSA,A,1,,,,,,,,,,,,,99.99,99.99,99.99*30
$GPGSV,3,1,09,08,10,297,19,10,42,005,,18,47,139,,23,38,052,*71
$GPGSV,3,2,09,24,14,043,,25,09,123,,27,25,270,34,31,27,193,*77
$GPGSV,3,3,09,32,58,306,23*48
$GPGLL,,,,,075553.00,V,N*4B
$GPRMC,075554.00,V,,,,,,,260921,,,N*75
$GPVTG,,,,,,,,,N*30
$GPGGA,075554.00,,,,,0,00,99.99,,,,,,*60
$GPGSA,A,1,,,,,,,,,,,,,99.99,99.99,99.99*30
$GPGSV,3,1,09,08,10,297,20,10,42,005,,18,47,139,,23,38,052,*7B
$GPGSV,3,2,09,24,14,043,,25,09,123,,27,25,270,34,31,27,193,*77
$GPGSV,3,3,09,32,58,306,*49
$GPGLL,,,,,075554.00,V,N*4C
$GPRMC,075555.00,V,,,,,,,260921,,,N*74
$GPVTG,,,,,,,,,N*30
$GPGGA,075555.00,,,,,0,00,99.99,,,,,,*61
$GPGSA,A,1,,,,,,,,,,,,,99.99,99.99,99.99*30
$GPGSV,3,1,09,08,10,297,20,10,42,005,,18,47,139,,23,38,052,*7B
$GPGSV,3,2,09,24,14,043,,25,09,123,,27,25,270,34,31,27,193,*77
$GPGSV,3,3,09,32,58,306,*49
$GPGLL,,,,,075555.00,V,N*4D
$GPRMC,075556.00,V,,,,,,,260921,,,N*77
$GPVTG,,,,,,,,,N*30
$GPGGA,075556.00,,,,,0,00,99.99,,,,,,*62
$GPGSA,A,1,,,,,,,,,,,,,99.99,99.99,99.99*30
$GPGSV,3,1,09,08,10,297,20,10,42,005,,18,47,139,,23,38,052,*7B
$GPGSV,3,2,09,24,14,043,,25,09,123,,27,25,270,34,31,27,193,*77
$GPGSV,3,3,09,32,58,306,*49
$GPGLL,,,,,075556.00,V,N*4E
$GPRMC,075557.00,V,,,,,,,260921,,,N*76
$GPVTG,,,,,,,,,N*30
$GPGGA,075557.00,,,,,0,00,99.99,,,,,,*63
$GPGSA,A,1,,,,,,,,,,,,,99.99,99.99,99.99*30
$GPGSV,3,1,09,08,10,297,20,10,42,005,,18,47,139,,23,38,052,*7B
$GPGSV,3,2,09,24,14,043,,25,09,123,,27,25,270,34,31,27,193,*77
$GPGSV,3,3,09,32,58,306,*49
$GPGLL,,,,,075557.00,V,N*4F
$GPRMC,075558.00,V,,,,,,,260921,,,N*79
$GPVTG,,,,,,,,,N*30
$GPGGA,075558.00,,,,,0,00,99.99,,,,,,*6C
$GPGSA,A,1,,,,,,,,,,,,,99.99,99.99,99.99*30
$GPGSV,3,1,09,08,10,297,20,10,42,005,,18,47,139,,23,38,052,*7B
$GPGSV,3,2,09,24,14,043,,25,09,123,,27,25,270,34,31,27,193,*77
$GPGSV,3,3,09,32,58,306,*49
$GPGLL,,,,,075558.00,V,N*40
$GPRMC,075559.00,V,,,,,,,260921,,,N*78
$GPVTG,,,,,,,,,N*30
$GPGGA,075559.00,,,,,0,00,99.99,,,,,,*6D
$GPGSA,A,1,,,,,,,,,,,,,99.99,99.99,99.99*30
$GPGSV,3,1,09,08,10,297,20,10,42,005,,18,47,139,,23,38,052,*7B
$GPGSV,3,2,09,24,14,043,,25,09,123,,27,25,270,34,31,27,193,*77
$GPGSV,3,3,09,32,58,306,*49
$GPGLL,,,,,075559.00,V,N*41
$GPRMC,075600.00,V,,,,,,,260921,,,N*77
$GPVTG,,,,,,,,,N*30
$GPGGA,075600.00,,,,,0,00,99.99,,,,,,*62
$GPGSA,A,1,,,,,,,,,,,,,99.99,99.99,99.99*30
$GPGSV,3,1,09,08,10,297,21,10,43,005,,18,47,139,,23,38,052,*7B
$GPGSV,3,2,09,24,14,043,,25,09,123,,27,25,270,34,31,27,193,*77
$GPGSV,3,3,09,32,58,306,*49
$GPGLL,,,,,075600.00,V,N*4E
$GPRMC,075601.00,V,,,,,,,260921,,,N*76
$GPVTG,,,,,,,,,N*30
$GPGGA,075601.00,,,,,0,00,99.99,,,,,,*63
$GPGSA,A,1,,,,,,,,,,,,,99.99,99.99,99.99*30
$GPGSV,3,1,09,08,10,297,20,10,43,005,,18,47,139,,23,38,052,*7A
$GPGSV,3,2,09,24,14,043,,25,09,123,,27,25,270,34,31,27,193,*77
$GPGSV,3,3,09,32,58,306,*49
$GPGLL,,,,,075601.00,V,N*4F
$GPRMC,075602.00,V,,,,,,,260921,,,N*75
$GPVTG,,,,,,,,,N*30
$GPGGA,075602.00,,,,,0,00,99.99,,,,,,*60
$GPGSA,A,1,,,,,,,,,,,,,99.99,99.99,99.99*30
$GPGSV,3,1,09,08,10,297,22,10,43,005,,18,47,139,,23,38,052,*78
$GPGSV,3,2,09,24,14,043,,25,09,123,,27,25,270,33,31,27,193,*70
$GPGSV,3,3,09,32,58,306,20*4B
$GPGLL,,,,,075602.00,V,N*4C
$GPRMC,075603.00,V,,,,,,,260921,,,N*74
$GPVTG,,,,,,,,,N*30
$GPGGA,075603.00,,,,,0,00,99.99,,,,,,*61
$GPGSA,A,1,,,,,,,,,,,,,99.99,99.99,99.99*30
$GPGSV,3,1,09,08,10,297,23,10,43,005,20,18,47,139,,23,38,052,*7B
$GPGSV,3,2,09,24,14,043,,25,09,123,,27,25,270,28,31,27,193,*7A
$GPGSV,3,3,09,32,58,306,19*41
$GPGLL,,,,,075603.00,V,N*4D
$GPRMC,075604.00,V,,,,,,,260921,,,N*73
$GPVTG,,,,,,,,,N*30
$GPGGA,075604.00,,,,,0,03,4.51,,,,,,*55
$GPGSA,A,1,32,08,27,,,,,,,,,,4.62,4.51,1.00*0D
$GPGSV,3,1,09,08,10,297,24,10,43,005,18,18,47,139,,23,38,052,*77
$GPGSV,3,2,09,24,14,043,,25,09,123,,27,25,270,31,31,27,193,*72
$GPGSV,3,3,09,32,58,306,20*4B
$GPGLL,,,,,075604.00,V,N*4A
$GPRMC,075605.00,V,,,,,,,260921,,,N*72
$GPVTG,,,,,,,,,N*30
$GPGGA,075605.00,,,,,0,03,4.51,,,,,,*54
$GPGSA,A,1,32,08,27,,,,,,,,,,4.62,4.51,1.00*0D
$GPGSV,3,1,09,08,10,297,24,10,43,005,16,18,47,139,,23,38,052,*79
$GPGSV,3,2,09,24,14,043,,25,09,123,,27,25,270,31,31,27,193,*72
$GPGSV,3,3,09,32,58,306,20*4B
$GPGLL,,,,,075605.00,V,N*4B
$GPRMC,075606.00,V,,,,,,,260921,,,N*71
$GPVTG,,,,,,,,,N*30
$GPGGA,075606.00,,,,,0,03,4.51,,,,,,*57
$GPGSA,A,1,32,08,27,,,,,,,,,,4.62,4.51,1.00*0D
$GPGSV,3,1,09,08,10,297,24,10,43,005,,18,47,139,,23,38,052,*7E
$GPGSV,3,2,09,24,14,043,,25,09,123,,27,25,270,31,31,27,193,*72
$GPGSV,3,3,09,32,58,306,21*4A
$GPGLL,,,,,075606.00,V,N*48
$GPRMC,075607.00,V,,,,,,,260921,,,N*70
$GPVTG,,,,,,,,,N*30
$GPGGA,075607.00,,,,,0,03,4.51,,,,,,*56
$GPGSA,A,1,32,08,27,,,,,,,,,,4.62,4.51,1.00*0D
$GPGSV,3,1,09,08,10,297,23,10,43,005,,18,47,139,,23,38,052,*79
$GPGSV,3,2,09,24,14,043,,25,09,123,,27,25,270,32,31,27,193,*71
$GPGSV,3,3,09,32,58,306,20*4B
$GPGLL,,,,,075607.00,V,N*49
$GPRMC,075608.00,V,,,,,,,260921,,,N*7F
$GPVTG,,,,,,,,,N*30
$GPGGA,075608.00,,,,,0,03,4.51,,,,,,*59
$GPGSA,A,1,32,08,27,,,,,,,,,,4.62,4.51,1.00*0D
$GPGSV,3,1,09,08,10,297,23,10,43,005,,18,47,139,,23,38,052,*79
$GPGSV,3,2,09,24,14,043,,25,09,123,,27,25,270,32,31,27,193,*71
$GPGSV,3,3,09,32,58,306,20*4B
$GPGLL,,,,,075608.00,V,N*46
$GPRMC,075609.00,V,,,,,,,260921,,,N*7E
$GPVTG,,,,,,,,,N*30
$GPGGA,075609.00,,,,,0,03,4.51,,,,,,*58
$GPGSA,A,1,32,08,27,,,,,,,,,,4.62,4.51,1.00*0D
$GPGSV,3,1,09,08,10,297,22,10,43,005,,18,47,139,,23,38,052,*78
$GPGSV,3,2,09,24,14,043,21,25,09,123,,27,25,270,32,31,27,193,*72
$GPGSV,3,3,09,32,58,306,20*4B
$GPGLL,,,,,075609.00,V,N*47
$GPRMC,075610.00,V,,,,,,,260921,,,N*76
$GPVTG,,,,,,,,,N*30
$GPGGA,075610.00,,,,,0,03,4.51,,,,,,*50
$GPGSA,A,1,32,08,27,,,,,,,,,,4.62,4.51,1.00*0D
$GPGSV,3,1,09,08,10,297,22,10,43,005,,18,47,139,,23,38,052,*78
$GPGSV,3,2,09,24,14,043,,25,09,123,23,27,25,270,32,31,27,193,*70
$GPGSV,3,3,09,32,58,306,20*4B
$GPGLL,,,,,075610.00,V,N*4F
$GPRMC,075611.00,V,,,,,,,260921,,,N*77
$GPVTG,,,,,,,,,N*30
$GPGGA,075611.00,,,,,0,03,4.51,,,,,,*51
$GPGSA,A,1,32,08,27,,,,,,,,,,4.62,4.51,1.00*0D
$GPGSV,3,1,09,08,10,297,22,10,43,005,,18,47,139,,23,38,052,*78
$GPGSV,3,2,09,24,14,043,,25,09,123,,27,25,270,32,31,27,193,*71
$GPGSV,3,3,09,32,58,306,19*41
$GPGLL,,,,,075611.00,V,N*4E
$GPRMC,075612.00,V,,,,,,,260921,,,N*74
$GPVTG,,,,,,,,,N*30
$GPGGA,075612.00,,,,,0,03,4.51,,,,,,*52
$GPGSA,A,1,32,08,27,,,,,,,,,,4.62,4.51,1.00*0D
$GPGSV,3,1,09,08,10,297,21,10,43,005,,18,47,139,,23,38,052,*7B
$GPGSV,3,2,09,24,14,043,,25,09,123,,27,25,270,32,31,27,193,*71
$GPGSV,3,3,09,32,58,306,19*41
$GPGLL,,,,,075612.00,V,N*4D
$GPRMC,075613.00,V,,,,,,,260921,,,N*75
$GPVTG,,,,,,,,,N*30
$GPGGA,075613.00,,,,,0,04,4.51,,,,,,*54
$GPGSA,A,1,32,08,27,10,,,,,,,,,4.61,4.51,1.00*0F
$GPGSV,3,1,09,08,10,297,20,10,43,005,17,18,47,139,,23,37,053,*72
$GPGSV,3,2,09,24,14,043,,25,09,123,,27,25,270,28,31,27,193,*7A
$GPGSV,3,3,09,32,58,306,19*41
$GPGLL,,,,,075613.00,V,N*4C
$GPRMC,075614.00,V,,,,,,,260921,,,N*72
$GPVTG,,,,,,,,,N*30
$GPGGA,075614.00,,,,,0,04,4.50,,,,,,*52
$GPGSA,A,1,32,08,27,10,,,,,,,,,4.61,4.50,1.00*0E
$GPGSV,3,1,09,08,10,297,21,10,43,005,16,18,47,139,,23,37,053,*72
$GPGSV,3,2,09,24,14,043,,25,09,123,,27,25,270,28,31,27,193,*7A
$GPGSV,3,3,09,32,58,306,19*41
$GPGLL,,,,,075614.00,V,N*4B
$GPRMC,075615.00,V,,,,,,,260921,,,N*73
$GPVTG,,,,,,,,,N*30
$GPGGA,075615.00,,,,,0,04,4.50,,,,,,*53
$GPGSA,A,1,32,08,27,10,,,,,,,,,4.61,4.50,1.00*0E
$GPGSV,3,1,09,08,10,297,22,10,43,005,14,18,47,139,,23,37,053,*73
$GPGSV,3,2,09,24,14,043,,25,09,122,,27,25,270,28,31,27,193,*7B
$GPGSV,3,3,09,32,58,306,19*41
$GPGLL,,,,,075615.00,V,N*4A
$GPRMC,075616.00,V,,,,,,,260921,,,N*70
$GPVTG,,,,,,,,,N*30
$GPGGA,075616.00,,,,,0,04,4.50,,,,,,*50
$GPGSA,A,1,32,08,27,10,,,,,,,,,4.61,4.50,1.00*0E
$GPGSV,3,1,09,08,10,297,22,10,43,005,13,18,47,139,,23,37,053,*74
$GPGSV,3,2,09,24,14,043,,25,09,122,,27,25,270,28,31,27,193,*7B
$GPGSV,3,3,09,32,58,306,19*41
$GPGLL,,,,,075616.00,V,N*49
$GPRMC,075617.00,V,,,,,,,260921,,,N*71
$GPVTG,,,,,,,,,N*30
$GPGGA,075617.00,,,,,0,04,6.84,,,,,,*5A
$GPGSA,A,1,32,08,27,10,,,,,,,,,8.23,6.84,4.58*07
$GPGSV,3,1,09,08,10,297,22,10,43,005,13,18,47,139,,23,37,053,*74
$GPGSV,3,2,09,24,14,043,,25,09,122,,27,25,270,28,31,27,193,*7B
$GPGSV,3,3,09,32,58,306,19*41
$GPGLL,,,,,075617.00,V,N*48
$GPRMC,075618.00,V,,,,,,,260921,,,N*7E
$GPVTG,,,,,,,,,N*30
$GPGGA,075618.00,,,,,0,04,4.50,,,,,,*5E
$GPGSA,A,1,32,08,27,10,,,,,,,,,4.61,4.50,1.00*0E
$GPGSV,3,1,09,08,10,297,21,10,43,005,12,18,47,139,,23,37,053,*76
$GPGSV,3,2,09,24,14,043,,25,09,122,,27,25,270,30,31,27,193,*72
$GPGSV,3,3,09,32,58,306,18*40
$GPGLL,,,,,075618.00,V,N*47
$GPRMC,075619.00,V,,,,,,,260921,,,N*7F
$GPVTG,,,,,,,,,N*30
$GPGGA,075619.00,,,,,0,04,4.50,,,,,,*5F
$GPGSA,A,1,32,08,27,10,,,,,,,,,4.61,4.50,1.00*0E
$GPGSV,3,1,09,08,10,297,20,10,43,005,10,18,47,139,,23,37,053,*75
$GPGSV,3,2,09,24,14,043,,25,09,122,,27,25,270,31,31,27,193,*73
$GPGSV,3,3,09,32,58,306,19*41
$GPGLL,,,,,075619.00,V,N*46
$GPRMC,075620.00,V,,,,,,,260921,,,N*75
$GPVTG,,,,,,,,,N*30
$GPGGA,075620.00,,,,,0,03,4.50,,,,,,*52
$GPGSA,A,1,32,08,27,,,,,,,,,,4.61,4.50,1.00*0F
$GPGSV,3,1,09,08,10,297,20,10,43,005,09,18,47,139,,23,37,053,*7D
$GPGSV,3,2,09,24,14,043,,25,09,122,,27,25,270,31,31,27,193,*73
$GPGSV,3,3,09,32,58,306,18*40
$GPGLL,,,,,075620.00,V,N*4C
$GPRMC,075621.00,V,,,,,,,260921,,,N*74
$GPVTG,,,,,,,,,N*30
$GPGGA,075621.00,,,,,0,03,4.50,,,,,,*53
$GPGSA,A,1,32,08,27,,,,,,,,,,4.61,4.50,1.00*0F
$GPGSV,3,1,09,08,10,297,19,10,43,005,,18,47,139,,23,37,053,*7E
$GPGSV,3,2,09,24,14,043,,25,09,122,,27,25,270,31,31,28,193,*7C
$GPGSV,3,3,09,32,58,306,19*41
$GPGLL,,,,,075621.00,V,N*4D
$GPRMC,075622.00,V,,,,,,,260921,,,N*77
$GPVTG,,,,,,,,,N*30
$GPGGA,075622.00,,,,,0,03,4.50,,,,,,*50
$GPGSA,A,1,32,08,27,,,,,,,,,,4.61,4.50,1.00*0F
$GPGSV,3,1,09,08,10,297,19,10,43,005,,18,47,139,,23,37,053,*7E
$GPGSV,3,2,09,24,14,043,,25,09,122,,27,25,270,29,31,28,193,*75
$GPGSV,3,3,09,32,58,307,19*40
$GPGLL,,,,,075622.00,V,N*4E
$GPRMC,075623.00,V,,,,,,,260921,,,N*76
$GPVTG,,,,,,,,,N*30
$GPGGA,075623.00,,,,,0,03,4.50,,,,,,*51
$GPGSA,A,1,32,08,27,,,,,,,,,,4.61,4.50,1.00*0F
$GPGSV,3,1,09,08,10,297,19,10,43,005,,18,47,139,,23,37,053,*7E
$GPGSV,3,2,09,24,14,043,,25,09,122,,27,25,270,30,31,28,193,*7D
$GPGSV,3,3,09,32,58,307,18*41
$GPGLL,,,,,075623.00,V,N*4F
$GPRMC,075624.00,V,,,,,,,260921,,,N*71
$GPVTG,,,,,,,,,N*30
$GPGGA,075624.00,,,,,0,03,4.50,,,,,,*56
$GPGSA,A,1,32,08,27,,,,,,,,,,4.61,4.50,1.00*0F
$GPGSV,3,1,09,08,10,297,20,10,43,005,,18,47,139,,23,37,053,*74
$GPGSV,3,2,09,24,14,043,,25,09,122,,27,25,270,31,31,28,193,*7C
$GPGSV,3,3,09,32,58,307,18*41
$GPGLL,,,,,075624.00,V,N*48
$GPRMC,075625.00,V,,,,,,,260921,,,N*70
$GPVTG,,,,,,,,,N*30
$GPGGA,075625.00,,,,,0,03,4.50,,,,,,*57
$GPGSA,A,1,32,08,27,,,,,,,,,,4.61,4.50,1.00*0F
$GPGSV,3,1,09,08,10,297,20,10,43,005,,18,47,139,,23,37,053,*74
$GPGSV,3,2,09,24,14,043,,25,09,122,,27,25,270,31,31,28,193,*7C
$GPGSV,3,3,09,32,58,307,18*41
$GPGLL,,,,,075625.00,V,N*49
$GPRMC,075626.00,V,,,,,,,260921,,,N*73
$GPVTG,,,,,,,,,N*30
$GPGGA,075626.00,,,,,0,03,4.50,,,,,,*54
$GPGSA,A,1,32,08,27,,,,,,,,,,4.61,4.50,1.00*0F
$GPGSV,3,1,09,08,10,297,20,10,43,005,,18,47,139,,23,37,053,*74
$GPGSV,3,2,09,24,14,043,,25,09,122,,27,25,270,31,31,28,193,*7C
$GPGSV,3,3,09,32,58,307,18*41
$GPGLL,,,,,075626.00,V,N*4A
$GPRMC,075627.00,V,,,,,,,260921,,,N*72
$GPVTG,,,,,,,,,N*30
$GPGGA,075627.00,,,,,0,03,4.50,,,,,,*55
$GPGSA,A,1,32,08,27,,,,,,,,,,4.61,4.50,1.00*0F
$GPGSV,3,1,09,08,10,297,19,10,43,005,,18,47,139,,23,37,053,*7E
$GPGSV,3,2,09,24,14,043,,25,09,122,,27,25,270,32,31,28,193,*7F
$GPGSV,3,3,09,32,58,307,19*40
$GPGLL,,,,,075627.00,V,N*4B
$GPRMC,075628.00,V,,,,,,,260921,,,N*7D
$GPVTG,,,,,,,,,N*30
$GPGGA,075628.00,,,,,0,03,4.50,,,,,,*5A
$GPGSA,A,1,32,08,27,,,,,,,,,,4.61,4.50,1.00*0F
$GPGSV,3,1,09,08,10,297,19,10,43,005,,18,47,139,,23,37,053,*7E
$GPGSV,3,2,09,24,14,043,,25,09,122,,27,25,270,32,31,28,193,*7F
$GPGSV,3,3,09,32,58,307,18*41
$GPGLL,,,,,075628.00,V,N*44
$GPRMC,075629.00,V,,,,,,,260921,,,N*7C
$GPVTG,,,,,,,,,N*30
$GPGGA,075629.00,,,,,0,03,4.50,,,,,,*5B
$GPGSA,A,1,32,08,27,,,,,,,,,,4.61,4.50,1.00*0F
$GPGSV,3,1,09,08,10,297,20,10,43,005,,18,47,139,,23,37,053,*74
$GPGSV,3,2,09,24,14,043,,25,09,122,,27,25,270,32,31,28,193,*7F
$GPGSV,3,3,09,32,58,307,17*4E
$GPGLL,,,,,075629.00,V,N*45
$GPRMC,075630.00,V,,,,,,,260921,,,N*74
$GPVTG,,,,,,,,,N*30
$GPGGA,075630.00,,,,,0,03,4.50,,,,,,*53
$GPGSA,A,1,32,08,27,,,,,,,,,,4.61,4.50,1.00*0F
$GPGSV,3,1,09,08,10,297,21,10,43,005,,18,47,139,,23,37,053,*75
$GPGSV,3,2,09,24,14,043,,25,09,122,,27,25,270,32,31,28,193,*7F
$GPGSV,3,3,09,32,58,307,18*41
$GPGLL,,,,,075630.00,V,N*4D
$GPRMC,075631.00,V,,,,,,,260921,,,N*75
$GPVTG,,,,,,,,,N*30
$GPGGA,075631.00,,,,,0,03,4.50,,,,,,*52
$GPGSA,A,1,32,08,27,,,,,,,,,,4.61,4.50,1.00*0F
$GPGSV,3,1,09,08,10,297,22,10,43,005,,18,47,139,,23,37,053,*76
$GPGSV,3,2,09,24,14,043,,25,09,122,,27,25,270,31,31,28,193,*7C
$GPGSV,3,3,09,32,58,307,19*40
$GPGLL,,,,,075631.00,V,N*4C
$GPRMC,075632.00,V,,,,,,,260921,,,N*76
$GPVTG,,,,,,,,,N*30
$GPGGA,075632.00,,,,,0,03,4.50,,,,,,*51
$GPGSA,A,1,32,08,27,,,,,,,,,,4.61,4.50,1.00*0F
$GPGSV,3,1,09,08,10,297,22,10,43,005,,18,47,139,,23,37,053,*76
$GPGSV,3,2,09,24,14,043,,25,09,122,,27,25,270,32,31,28,193,*7F
$GPGSV,3,3,09,32,58,307,21*4B
$GPGLL,,,,,075632.00,V,N*4F
$GPRMC,075633.00,V,,,,,,,260921,,,N*77
$GPVTG,,,,,,,,,N*30
$GPGGA,075633.00,,,,,0,03,4.50,,,,,,*50
$GPGSA,A,1,32,08,27,,,,,,,,,,4.61,4.50,1.00*0F
$GPGSV,3,1,09,08,10,297,23,10,43,005,,18,47,139,,23,37,053,*77
$GPGSV,3,2,09,24,14,043,,25,09,122,,27,25,270,32,31,28,193,*7F
$GPGSV,3,3,09,32,58,307,21*4B
$GPGLL,,,,,075633.00,V,N*4E
$GPRMC,075634.00,V,,,,,,,260921,,,N*70
$GPVTG,,,,,,,,,N*30
$GPGGA,075634.00,,,,,0,03,4.50,,,,,,*57
$GPGSA,A,1,32,08,27,,,,,,,,,,4.61,4.50,1.00*0F
$GPGSV,3,1,09,08,10,297,22,10,43,005,,18,47,139,,23,37,053,*76
$GPGSV,3,2,09,24,14,043,,25,09,122,,27,25,270,32,31,28,193,*7F
$GPGSV,3,3,09,32,58,307,21*4B
$GPGLL,,,,,075634.00,V,N*49
$GPRMC,075635.00,V,,,,,,,260921,,,N*71
$GPVTG,,,,,,,,,N*30
$GPGGA,075635.00,,,,,0,03,4.50,,,,,,*56
