Terminal log file
Date: 18-10-2020 - 15:44:22
-----------------------------------------------
$GPRMC,101422.00,V,,,,,,,181020,,,N*73
$GPVTG,,,,,,,,,N*30
$GPGGA,101422.00,,,,,0,04,9.06,,,,,,*59
$GPGSA,A,1,31,10,32,26,,,,,,,,,16.53,9.06,13.82*00
$GPGSV,4,1,16,01,29,296,,03,04,323,,04,01,281,,08,01,228,*76
$GPGSV,4,2,16,10,38,117,14,11,21,256,,16,23,180,,20,08,134,*71
$GPGSV,4,3,16,21,45,248,,22,25,326,,23,11,130,,25,09,048,*74
$GPGSV,4,4,16,26,48,145,18,27,07,197,,31,57,009,22,32,27,041,18*73
$GPGLL,,,,,101422.00,V,N*4E
$GPRMC,101423.00,V,,,,,,,181020,,,N*72
$GPVTG,,,,,,,,,N*30
$GPGGA,101423.00,,,,,0,04,9.08,,,,,,*56
$GPGSA,A,1,31,10,32,26,,,,,,,,,16.56,9.08,13.85*0C
$GPGSV,4,1,16,01,29,296,,03,04,323,,04,01,281,,08,01,228,*76
$GPGSV,4,2,16,10,38,117,14,11,21,256,,16,23,180,,20,08,134,*71
$GPGSV,4,3,16,21,45,248,,22,25,326,,23,11,130,,25,09,048,*74
$GPGSV,4,4,16,26,48,145,18,27,07,197,,31,57,009,22,32,27,041,18*73
$GPGLL,,,,,101423.00,V,N*4F
$GPRMC,101424.00,V,,,,,,,181020,,,N*75
$GPVTG,,,,,,,,,N*30
$GPGGA,101424.00,,,,,0,04,3.13,,,,,,*51
$GPGSA,A,1,31,10,32,26,,,,,,,,,3.28,3.13,1.00*0F
$GPGSV,4,1,16,01,29,296,,03,04,323,,04,01,281,,08,01,228,*76
$GPGSV,4,2,16,10,38,117,14,11,21,256,,16,23,180,,20,08,134,*71
$GPGSV,4,3,16,21,45,248,,22,25,326,,23,11,130,,25,09,048,*74
$GPGSV,4,4,16,26,48,145,18,27,07,197,,31,57,009,21,32,27,041,18*70
$GPGLL,,,,,101424.00,V,N*48
$GPRMC,101425.00,V,,,,,,,181020,,,N*74
$GPVTG,,,,,,,,,N*30
$GPGGA,101425.00,,,,,0,04,3.13,,,,,,*50
$GPGSA,A,1,31,10,32,26,,,,,,,,,3.28,3.13,1.00*0F
$GPGSV,4,1,16,01,29,296,,03,04,323,,04,01,281,,08,01,228,*76
$GPGSV,4,2,16,10,38,117,14,11,21,256,,16,23,180,,20,08,134,22*71
$GPGSV,4,3,16,21,45,248,,22,25,326,,23,11,130,,25,09,048,*74
$GPGSV,4,4,16,26,48,145,18,27,07,197,,31,57,009,22,32,27,041,17*7C
$GPGLL,,,,,101425.00,V,N*49
$GPRMC,101426.00,V,,,,,,,181020,,,N*77
$GPVTG,,,,,,,,,N*30
$GPGGA,101426.00,,,,,0,04,3.13,,,,,,*53
$GPGSA,A,1,31,10,32,26,,,,,,,,,3.28,3.13,1.00*0F
$GPGSV,4,1,16,01,29,296,,03,04,323,,04,01,281,,08,01,228,*76
$GPGSV,4,2,16,10,38,117,14,11,21,256,,16,23,180,,20,08,134,*71
$GPGSV,4,3,16,21,45,248,25,22,25,326,,23,11,130,,25,09,048,*73
$GPGSV,4,4,16,26,48,145,18,27,07,197,,31,57,009,22,32,27,041,18*73
$GPGLL,,,,,101426.00,V,N*4A
$GPRMC,101427.00,V,,,,,,,181020,,,N*76
$GPVTG,,,,,,,,,N*30
$GPGGA,101427.00,,,,,0,04,3.13,,,,,,*52
$GPGSA,A,1,31,10,32,26,,,,,,,,,3.28,3.13,1.00*0F
$GPGSV,4,1,16,01,29,296,,03,04,323,,04,01,281,,08,01,228,*76
$GPGSV,4,2,16,10,38,117,14,11,21,256,,16,23,180,,20,08,134,*71
$GPGSV,4,3,16,21,45,248,,22,25,326,24,23,11,130,,25,09,048,*72
$GPGSV,4,4,16,26,48,145,19,27,07,197,,31,57,009,22,32,27,041,19*73
$GPGLL,,,,,101427.00,V,N*4B
$GPRMC,101428.00,V,,,,,,,181020,,,N*79
$GPVTG,,,,,,,,,N*30
$GPGGA,101428.00,,,,,0,04,3.13,,,,,,*5D
$GPGSA,A,1,31,10,32,26,,,,,,,,,3.28,3.13,1.00*0F
$GPGSV,4,1,16,01,29,296,,03,04,323,,04,01,281,,08,01,228,*76
$GPGSV,4,2,16,10,38,117,12,11,21,256,,16,23,180,,20,08,134,*77
$GPGSV,4,3,16,21,45,248,,22,25,326,,23,11,130,,25,09,048,*74
$GPGSV,4,4,16,26,48,145,19,27,07,197,,31,57,009,22,32,27,041,20*79
$GPGLL,,,,,101428.00,V,N*44
$GPRMC,101429.00,V,,,,,,,181020,,,N*78
$GPVTG,,,,,,,,,N*30
$GPGGA,101429.00,,,,,0,04,9.19,,,,,,*5C
$GPGSA,A,1,31,10,32,26,,,,,,,,,16.75,9.19,14.01*06
$GPGSV,4,1,16,01,29,296,,03,04,323,,04,01,281,,08,01,228,*76
$GPGSV,4,2,16,10,38,117,13,11,21,256,,16,23,180,,20,08,134,*76
$GPGSV,4,3,16,21,45,248,,22,25,326,,23,11,130,,25,09,048,*74
$GPGSV,4,4,16,26,48,145,18,27,07,197,,31,57,009,21,32,27,041,18*70
$GPGLL,,,,,101429.00,V,N*45
$GPRMC,101430.00,V,,,,,,,181020,,,N*70
$GPVTG,,,,,,,,,N*30
$GPGGA,101430.00,,,,,0,04,9.21,,,,,,*5F
$GPGSA,A,1,31,10,32,26,,,,,,,,,16.79,9.21,14.04*04
$GPGSV,4,1,16,01,29,296,,03,04,323,,04,01,281,,08,01,228,*76
$GPGSV,4,2,16,10,38,117,12,11,21,256,,16,23,180,,20,08,134,*77
$GPGSV,4,3,16,21,45,248,,22,25,326,,23,11,130,,25,09,048,*74
$GPGSV,4,4,16,26,48,145,18,27,07,197,,31,57,009,22,32,27,041,18*73
$GPGLL,,,,,101430.00,V,N*4D
$GPRMC,101431.00,V,,,,,,,181020,,,N*71
$GPVTG,,,,,,,,,N*30
$GPGGA,101431.00,,,,,0,04,9.23,,,,,,*5C
$GPGSA,A,1,31,10,32,26,,,,,,,,,16.82,9.23,14.06*00
$GPGSV,4,1,16,01,29,296,,03,04,323,,04,01,281,,08,01,228,*76
$GPGSV,4,2,16,10,38,117,12,11,21,256,,16,23,180,,20,08,134,*77
$GPGSV,4,3,16,21,45,248,,22,25,326,,23,11,130,,25,09,048,*74
$GPGSV,4,4,16,26,48,145,17,27,07,197,19,31,57,009,22,32,27,041,18*74
$GPGLL,,,,,101431.00,V,N*4C
$GPRMC,101432.00,V,,,,,,,181020,,,N*72
$GPVTG,,,,,,,,,N*30
$GPGGA,101432.00,,,,,0,04,9.25,,,,,,*59
$GPGSA,A,1,31,10,32,26,,,,,,,,,16.85,9.25,14.09*0E
$GPGSV,4,1,16,01,29,296,,03,04,323,,04,01,281,,08,01,228,*76
$GPGSV,4,2,16,10,38,117,11,11,21,256,,16,23,180,,20,08,134,*74
$GPGSV,4,3,16,21,45,248,,22,25,326,,23,11,130,,25,09,048,*74
$GPGSV,4,4,16,26,48,145,16,27,07,197,,31,57,009,22,32,27,041,18*7D
$GPGLL,,,,,101432.00,V,N*4F
$GPRMC,101433.00,V,,,,,,,181020,,,N*73
$GPVTG,,,,,,,,,N*30
$GPGGA,101433.00,,,,,0,03,3.13,,,,,,*50
$GPGSA,A,1,31,32,26,,,,,,,,,,3.28,3.13,1.00*0E
$GPGSV,4,1,16,01,29,296,,03,04,323,,04,01,281,,08,01,228,*76
$GPGSV,4,2,16,10,38,117,09,11,21,256,,16,23,180,,20,08,134,*7D
$GPGSV,4,3,16,21,45,248,,22,25,326,,23,11,130,,25,09,048,*74
$GPGSV,4,4,16,26,48,145,16,27,07,197,,31,57,009,22,32,27,041,18*7D
$GPGLL,,,,,101433.00,V,N*4E
$GPRMC,101434.00,V,,,,,,,181020,,,N*74
$GPVTG,,,,,,,,,N*30
$GPGGA,101434.00,,,,,0,04,9.28,,,,,,*52
$GPGSA,A,1,31,10,32,26,,,,,,,,,16.92,9.28,14.15*08
$GPGSV,4,1,16,01,29,296,,03,04,323,,04,01,281,,08,01,228,*76
$GPGSV,4,2,16,10,38,117,11,11,21,256,,16,23,180,,20,08,134,*74
$GPGSV,4,3,16,21,45,248,,22,25,326,,23,11,130,,25,09,048,*74
197,,31,57,009,22,32,27,041,19*72
$GPGLL,,,,,101434.00,V,N*49
$GPRMC,101435.00,V,,,,,,,181020,,,N*75
$GPVTG,,,,,,,,,N*30
$GPGGA,101435.00,,,,,0,04,9.30,,,,,,*5A
$GPGSA,A,1,31,10,32,26,,,,,,,,,16.95,9.30,14.17*04
$GPGSV,4,1,16,01,29,296,,03,04,323,,04,01,281,,08,01,228,*76
$GPGSV,4,2,16,10,38,117,11,11,21,256,,16,23,180,,20,08,134,*74
$GPGSV,4,3,16,21,45,248,,22,25,326,,23,11,130,,25,09,048,*74
$GPGSV,4,4,16,26,48,145,18,27,07,197,,31,57,009,22,32,27,041,19*72
$GPGLL,,,,,101435.00,V,N*48
$GPRMC,101436.00,V,,,,,,,181020,,,N*76
$GPVTG,,,,,,,,,N*30
$GPGGA,101436.00,,,,,0,04,9.32,,,,,,*5B
$GPGSA,A,1,31,10,32,26,,,,,,,,,16.99,9.32,14.20*0E
$GPGSV,4,1,16,01,29,296,,03,04,323,,04,01,281,,08,01,228,*76
$GPGSV,4,2,16,10,38,117,11,11,21,256,,16,23,180,,20,08,134,*74
$GPGSV,4,3,16,21,45,248,,22,25,326,,23,11,130,,25,09,048,*74
$GPGSV,4,4,16,26,48,145,19,27,07,197,,31,57,009,22,32,27,041,20*79
$GPGLL,,,,,101436.00,V,N*4B
$GPRMC,101437.00,V,,,,,,,181020,,,N*77
$GPVTG,,,,,,,,,N*30
$GPGGA,101437.00,,,,,0,04,9.34,,,,,,*5C
,,17.02,9.34,14.23*08
$GPGSV,4,1,16,01,29,296,,03,04,323,,04,01,281,,08,01,228,*76
$GPGSV,4,2,16,10,38,117,11,11,21,256,,16,23,180,,20,08,134,*74
$GPGSV,4,3,16,21,45,248,,22,25,326,,23,11,130,,25,09,048,*74
$GPGSV,4,4,16,26,48,145,19,27,07,197,,31,57,009,22,32,27,041,19*73
$GPGLL,,,,,101437.00,V,N*4A
$GPRMC,101438.00,V,,,,,,,181020,,,N*78
$GPVTG,,,,,,,,,N*30
$GPGGA,101438.00,,,,,0,04,9.36,,,,,,*51
$GPGSA,A,1,31,10,32,26,,,,,,,,,17.05,9.36,14.26*08
$GPGSV,4,1,16,01,29,296,,03,04,323,,04,01,281,,08,01,228,*76
$GPGSV,4,2,16,10,38,117,12,11,21,256,,16,23,180,,20,08,134,*77
$GPGSV,4,3,16,21,45,248,,22,25,326,,23,11,130,,25,09,048,*74
$GPGSV,4,4,16,26,48,145,19,27,07,197,,31,57,009,21,32,27,041,19*70
$GPGLL,,,,,101438.00,V,N*45
$GPRMC,101439.00,V,,,,,,,181020,,,N*79
$GPVTG,,,,,,,,,N*30
$GPGGA,101439.00,,,,,0,04,9.38,,,,,,*5E
$GPGSA,A,1,31,10,32,26,,,,,,,,,17.09,9.38,14.29*05
$GPGSV,4,1,16,01,29,296,,03,04,323,,04,01,281,,08,01,228,*76
$GPGSV,4,2,16,10,38,117,10,11,21,256,,16,23,180,,20,08,134,*75
$GPGSV,4,3,16,21,45,248,,22,25,326,,23,11,130,,25,09,048,*74
$GPGSV,4,4,16,26,48,145,18,27,07,197,,31,57,009,21,32,27,041,17*7F
$GPGLL,,,,,101439.00,V,N*44
$GPRMC,101440.00,V,,,,,,,181020,,,N*77
$GPVTG,,,,,,,,,N*30
$GPGGA,101440.00,,,,,0,04,9.40,,,,,,*5F
$GPGSA,A,1,31,10,32,26,,,,,,,,,17.12,9.40,14.31*09
$GPGSV,4,1,16,01,29,296,,03,04,323,,04,01,281,,08,01,228,*76
$GPGSV,4,2,16,10,38,117,11,11,21,256,,16,23,180,,20,08,134,*74
$GPGSV,4,3,16,21,45,248,,22,25,326,,23,11,130,,25,09,048,*74
$GPGSV,4,4,16,26,48,145,18,27,07,197,,31,57,009,21,32,27,041,18*70
$GPGLL,,,,,101440.00,V,N*4A
$GPRMC,101441.00,V,,,,,,,181020,,,N*76
$GPVTG,,,,,,,,,N*30
$GPGGA,101441.00,,,,,0,04,9.42,,,,,,*5C
$GPGSA,A,1,31,10,32,26,,,,,,,,,17.16,9.42,14.34*0A
$GPGSV,4,1,16,01,29,296,,03,04,323,,04,01,281,,08,01,228,*76
$GPGSV,4,2,16,10,38,117,13,11,21,256,,16,23,180,,20,08,134,*76
$GPGSV,4,3,16,21,45,248,,22,25,326,,23,11,130,,25,09,048,*74
$GPGSV,4,4,16,26,48,145,18,27,07,197,,31,57,009,22,32,27,041,19*72
$GPGLL,,,,,101441.00,V,N*4B
$GPRMC,101442.00,V,,,,,,,181020,,,N*75
$GPVTG,,,,,,,,,N*30
$GPGGA,101442.00,,,,,0,04,9.44,,,,,,*59
$GPGSA,A,1,31,10,32,26,,,,,,,,,17.19,9.44,14.37*00
$GPGSV,4,1,16,01,29,296,,03,04,323,,04,01,281,,08,01,228,*76
$GPGSV,4,2,16,10,38,117,13,11,21,256,,16,23,180,,20,08,134,*76
$GPGSV,4,3,16,21,45,248,,22,25,326,,23,11,130,,25,09,048,*74
$GPGSV,4,4,16,26,48,145,18,27,07,197,,31,57,009,22,32,27,041,19*72
$GPGLL,,,,,101442.00,V,N*48
$GPRMC,101443.00,V,,,,,,,181020,,,N*74
$GPVTG,,,,,,,,,N*30
$GPGGA,101443.00,,,,,0,04,9.46,,,,,,*5A
$GPGSA,A,1,31,10,32,26,,,,,,,,,17.23,9.46,14.40*0B
$GPGSV,4,1,16,01,29,296,,03,04,323,,04,01,281,,08,01,228,*76
$GPGSV,4,2,16,10,38,117,12,11,21,256,,16,23,180,,20,08,134,*77
$GPGSV,4,3,16,21,45,248,,22,25,326,,23,11,130,,25,09,048,*74
$GPGSV,4,4,16,26,48,145,18,27,07,197,,31,57,009,21,32,27,041,19*71
$GPGLL,,,,,101443.00,V,N*49
$GPRMC,101444.00,V,,,,,,,181020,,,N*73
$GPVTG,,,,,,,,,N*30
$GPGGA,101444.00,,,,,0,04,3.12,,,,,,*56
$GPGSA,A,1,31,10,32,26,,,,,,,,,3.28,3.12,1.00*0E
$GPGSV,4,1,16,01,29,296,,03,04,323,,04,01,281,,08,01,228,*76
$GPGSV,4,2,16,10,38,117,10,11,21,256,,16,23,180,,20,08,134,*75
$GPGSV,4,3,16,21,45,248,,22,25,326,,23,11,130,,25,09,048,*74
$GPGSV,4,4,16,26,48,145,19,27,07,197,,31,57,009,22,32,27,041,19*73
$GPGLL,,,,,101444.00,V,N*4E
$GPRMC,101445.00,V,,,,,,,181020,,,N*72
$GPVTG,,,,,,,,,N*30
$GPGGA,101445.00,,,,,0,03,3.12,,,,,,*50
$GPGSA,A,1,31,32,26,,,,,,,,,,3.28,3.12,1.00*0F
$GPGSV,4,1,16,01,29,296,,03,04,323,,04,01,281,,08,01,228,*76
$GPGSV,4,2,16,10,38,117,08,11,21,256,,16,23,180,,20,08,134,*7C
$GPGSV,4,3,16,21,45,248,,22,25,326,,23,11,130,,25,09,048,*74
$GPGSV,4,4,16,26,48,145,19,27,07,197,,31,57,009,22,32,27,041,20*79
$GPGLL,,,,,101445.00,V,N*4F
$GPRMC,101446.00,V,,,,,,,181020,,,N*71
$GPVTG,,,,,,,,,N*30
$GPGGA,101446.00,,,,,0,03,3.12,,,,,,*53
$GPGSA,A,1,31,32,26,,,,,,,,,,3.28,3.12,1.00*0F
$GPGSV,4,1,16,01,29,296,,03,04,323,,04,01,281,,08,01,228,*76
$GPGSV,4,2,16,10,38,117,08,11,21,256,,16,23,180,,20,08,134,*7C
$GPGSV,4,3,16,21,45,248,,22,25,326,,23,11,130,,25,09,048,*74
$GPGSV,4,4,16,26,48,145,20,27,07,197,,31,57,009,22,32,27,041,20*73
$GPGLL,,,,,101446.00,V,N*4C
$GPRMC,101447.00,V,,,,,,,181020,,,N*70
$GPVTG,,,,,,,,,N*30
$GPGGA,101447.00,,,,,0,03,3.12,,,,,,*52
$GPGSA,A,1,31,32,26,,,,,,,,,,3.28,3.12,1.00*0F
$GPGSV,4,1,16,01,29,296,,03,04,323,,04,01,281,,08,01,228,*76
$GPGSV,4,2,16,10,38,117,09,11,21,256,,16,23,180,,20,08,134,*7D
$GPGSV,4,3,16,21,45,248,,22,25,326,,23,11,130,,25,09,048,*74
$GPGSV,4,4,16,26,48,145,20,27,07,197,,31,57,009,22,32,27,041,20*73
$GPGLL,,,,,101447.00,V,N*4D
$GPRMC,101448.00,V,,,,,,,181020,,,N*7F
$GPVTG,,,,,,,,,N*30
$GPGGA,101448.00,,,,,0,04,3.12,,,,,,*5A
$GPGSA,A,1,31,10,32,26,,,,,,,,,3.28,3.12,1.00*0E
$GPGSV,4,1,16,01,29,296,,03,05,323,,04,01,281,,08,01,228,*77
$GPGSV,4,2,16,10,38,117,13,11,21,256,,16,23,180,,20,08,134,*76
$GPGSV,4,3,16,21,45,248,,22,25,326,,23,11,130,,25,09,048,*74
$GPGSV,4,4,16,26,48,145,21,27,07,197,,31,57,009,23,32,27,041,20*73
$GPGLL,,,,,101448.00,V,N*42
$GPRMC,101449.00,V,,,,,,,181020,,,N*7E
$GPVTG,,,,,,,,,N*30
$GPGGA,101449.00,,,,,0,04,3.12,,,,,,*5B
$GPGSA,A,1,31,10,32,26,,,,,,,,,3.28,3.12,1.00*0E
$GPGSV,4,1,16,01,29,296,,03,05,323,,04,01,281,,08,01,228,*77
$GPGSV,4,2,16,10,38,117,11,11,21,256,,16,23,180,,20,08,134,*74
$GPGSV,4,3,16,21,45,248,,22,25,326,,23,11,130,,25,09,048,*74
$GPGSV,4,4,16,26,48,145,21,27,07,197,,31,57,009,22,32,27,041,20*72
$GPGLL,,,,,101449.00,V,N*43
$GPRMC,101450.00,V,,,,,,,181020,,,N*76
$GPVTG,,,,,,,,,N*30
$GPGGA,101450.00,,,,,0,03,3.12,,,,,,*54
$GPGSA,A,1,31,32,26,,,,,,,,,,3.28,3.12,1.00*0F
$GPGSV,4,1,16,01,29,296,,03,05,323,,04,01,281,,08,01,228,*77
$GPGSV,4,2,16,10,38,117,,11,21,256,,16,23,180,,20,08,134,*74
$GPGSV,4,3,16,21,45,248,,22,25,326,,23,11,130,,25,09,048,*74
$GPGSV,4,4,16,26,48,145,21,27,07,197,,31,57,009,23,32,27,041,19*79
$GPGLL,,,,,101450.00,V,N*4B
$GPRMC,101451.00,V,,,,,,,181020,,,N*77
$GPVTG,,,,,,,,,N*30
$GPGGA,101451.00,,,,,0,03,3.12,,,,,,*55
$GPGSA,A,1,31,32,26,,,,,,,,,,3.28,3.12,1.00*0F
$GPGSV,4,1,16,01,29,296,,03,05,323,,04,01,281,,08,01,228,*77
$GPGSV,4,2,16,10,38,117,,11,21,256,,16,23,180,,20,08,134,*74
$GPGSV,4,3,16,21,45,248,,22,25,326,,23,11,130,,25,09,048,*74
$GPGSV,4,4,16,26,48,145,21,27,07,197,,31,57,009,23,32,27,041,19*79
$GPGLL,,,,,101451.00,V,N*4A
$GPRMC,101452.00,V,,,,,,,181020,,,N*74
$GPVTG,,,,,,,,,N*30
$GPGGA,101452.00,,,,,0,03,3.12,,,,,,*56
$GPGSA,A,1,31,32,26,,,,,,,,,,3.28,3.12,1.00*0F
$GPGSV,4,1,16,01,29,296,,03,05,323,,04,01,281,,08,01,228,*77
$GPGSV,4,2,16,10,38,117,,11,21,256,,16,23,180,,20,08,134,*74
$GPGSV,4,3,16,21,45,248,,22,25,326,,23,11,130,,25,09,048,*74
$GPGSV,4,4,16,26,48,145,21,27,07,197,,31,57,009,23,32,27,041,19*79
$GPGLL,,,,,101452.00,V,N*49
$GPRMC,101453.00,V,,,,,,,181020,,,N*75
$GPVTG,,,,,,,,,N*30
$GPGGA,101453.00,,,,,0,03,3.12,,,,,,*57
$GPGSA,A,1,31,32,26,,,,,,,,,,3.28,3.12,1.00*0F
$GPGSV,4,1,16,01,29,296,,03,05,323,,04,01,281,,08,01,227,*78
$GPGSV,4,2,16,10,38,117,,11,21,256,,16,23,180,,20,08,134,*74
$GPGSV,4,3,16,21,45,248,,22,25,326,,23,11,130,,25,09,048,*74
$GPGSV,4,4,16,26,48,145,22,27,07,197,,31,57,009,23,32,27,041,19*7A
$GPGLL,,,,,101453.00,V,N*48
$GPRMC,101454.00,V,,,,,,,181020,,,N*72
$GPVTG,,,,,,,,,N*30
$GPGGA,101454.00,,,,,0,03,3.12,,,,,,*50
$GPGSA,A,1,31,32,26,,,,,,,,,,3.28,3.12,1.00*0F
$GPGSV,4,1,16,01,29,296,,03,05,323,,04,01,281,,08,01,227,*78
$GPGSV,4,2,16,10,38,117,,11,21,256,,16,23,180,,20,08,134,*74
$GPGSV,4,3,16,21,45,248,,22,25,326,,23,11,130,,25,09,048,*74
$GPGSV,4,4,16,26,48,145,22,27,07,197,,31,57,009,23,32,27,041,19*7A
$GPGLL,,,,,101454.00,V,N*4F
$GPRMC,101455.00,A,1247.92669,N,08013.51653,E,1.591,,181020,,,A*7E
$GPVTG,,T,,M,1.591,N,2.947,K,A*27
$GPGGA,101455.00,1247.92669,N,08013.51653,E,1,03,3.12,43.6,M,-87.6,M,,*42
$GPGSA,A,2,31,32,26,,,,,,,,,,3.28,3.12,1.00*0C
$GPGSV,4,1,16,01,29,296,,03,05,323,,04,01,281,,08,01,227,*78
$GPGSV,4,2,16,10,37,118,,11,21,256,,16,23,180,,20,08,134,*74
$GPGSV,4,3,16,21,45,248,,22,25,326,,23,11,130,,25,09,048,*74
$GPGSV,4,4,16,26,48,145,22,27,07,197,,31,57,009,23,32,27,041,19*7A
$GPGLL,1247.92669,N,08013.51653,E,101455.00,A,A*61
$GPRMC,101456.00,A,1247.92639,N,08013.51475,E,2.515,,181020,,,A*71
$GPVTG,,T,,M,2.515,N,4.658,K,A*2F
$GPGGA,101456.00,1247.92639,N,08013.51475,E,1,03,3.12,43.0,M,-87.6,M,,*44
$GPGSA,A,2,31,32,26,,,,,,,,,,3.28,3.12,1.00*0C
$GPGSV,4,1,16,01,29,296,,03,05,323,,04,01,281,,08,01,227,*78
$GPGSV,4,2,16,10,37,118,,11,21,256,,16,23,180,,20,08,134,*74
$GPGSV,4,3,16,21,45,248,,22,25,326,,23,11,130,,25,09,048,*74
$GPGSV,4,4,16,26,48,145,21,27,07,197,,31,57,009,23,32,27,041,19*79
$GPGLL,1247.92639,N,08013.51475,E,101456.00,A,A*61
$GPRMC,101457.00,A,1247.92662,N,08013.51384,E,1.505,,181020,,,A*75
$GPVTG,,T,,M,1.505,N,2.787,K,A*28
$GPGGA,101457.00,1247.92662,N,08013.51384,E,1,03,3.12,42.4,M,-87.6,M,,*47
$GPGSA,A,2,31,32,26,,,,,,,,,,3.28,3.12,1.00*0C
$GPGSV,4,1,16,01,29,296,,03,05,323,,04,01,281,,08,01,227,*78
$GPGSV,4,2,16,10,37,118,,11,21,256,,16,23,180,,20,08,134,*74
$GPGSV,4,3,16,21,45,248,,22,25,326,,23,11,130,,25,09,048,*74
$GPGSV,4,4,16,26,48,145,21,27,07,197,,31,57,009,24,32,27,041,19*7E
$GPGLL,1247.92662,N,08013.51384,E,101457.00,A,A*67
$GPRMC,101458.00,A,1247.92637,N,08013.51281,E,0.936,,181020,,,A*73
$GPVTG,,T,,M,0.936,N,1.733,K,A*29
$GPGGA,101458.00,1247.92637,N,08013.51281,E,1,03,3.12,41.9,M,-87.6,M,,*42
$GPGSA,A,2,31,32,26,,,,,,,,,,3.28,3.12,1.00*0C
$GPGSV,4,1,16,01,29,296,,03,05,323,,04,01,281,,08,01,227,*78
$GPGSV,4,2,16,10,37,118,,11,21,256,,16,23,180,,20,08,134,*74
$GPGSV,4,3,16,21,45,248,,22,25,326,,23,11,130,,25,09,048,*74
$GPGSV,4,4,16,26,48,145,22,27,07,197,,31,57,009,24,32,27,041,19*7D
$GPGLL,1247.92637,N,08013.51281,E,101458.00,A,A*6C
$GPRMC,101459.00,A,1247.92675,N,08013.51286,E,0.706,,181020,,,A*7E
$GPVTG,,T,,M,0.706,N,1.307,K,A*27
$GPGGA,101459.00,1247.92675,N,08013.51286,E,1,03,3.12,41.3,M,-87.6,M,,*48
$GPGSA,A,2,31,32,26,,,,,,,,,,3.28,3.12,1.00*0C
$GPGSV,4,1,16,01,29,296,,03,05,323,,04,01,281,,08,01,227,*78
$GPGSV,4,2,16,10,37,118,,11,21,256,,16,23,180,,20,08,134,*74
$GPGSV,4,3,16,21,45,248,,22,25,326,,23,11,130,,25,09,048,*74
$GPGSV,4,4,16,26,48,145,22,27,07,197,,31,57,009,24,32,27,041,19*7D
$GPGLL,1247.92675,N,08013.51286,E,101459.00,A,A*6C
$GPRMC,101500.00,A,1247.92691,N,08013.51227,E,0.417,,181020,,,A*71
$GPVTG,,T,,M,0.417,N,0.773,K,A*22
$GPGGA,101500.00,1247.92691,N,08013.51227,E,1,03,3.12,40.7,M,-87.6,M,,*41
$GPGSA,A,2,31,32,26,,,,,,,,,,3.28,3.12,1.00*0C
$GPGSV,4,1,16,01,29,296,,03,05,323,,04,01,281,,08,01,227,*78
$GPGSV,4,2,16,10,37,118,,11,21,256,,16,23,180,,20,08,134,*74
$GPGSV,4,3,16,21,45,248,,22,25,326,,23,11,130,,25,09,048,*74
$GPGSV,4,4,16,26,48,145,22,27,07,197,,31,57,009,24,32,27,041,18*7C
$GPGLL,1247.92691,N,08013.51227,E,101500.00,A,A*60
$GPRMC,101501.00,A,1247.92727,N,08013.51317,E,1.619,,181020,,,A*73
$GPVTG,,T,,M,1.619,N,2.998,K,A*26
$GPGGA,101501.00,1247.92727,N,08013.51317,E,1,03,3.12,40.3,M,-87.6,M,,*4A
$GPGSA,A,2,31,32,26,,,,,,,,,,3.28,3.12,1.00*0C
$GPGSV,4,1,16,01,29,296,,03,05,323,,04,01,281,,08,01,227,*78
$GPGSV,4,2,16,10,37,118,06,11,21,256,,16,23,180,18,20,08,134,*7B
$GPGSV,4,3,16,21,45,248,,22,25,326,,23,11,130,,25,09,048,*74
$GPGSV,4,4,16,26,48,145,22,27,07,197,,31,57,009,25,32,27,041,17*72
$GPGLL,1247.92727,N,08013.51317,E,101501.00,A,A*6F
$GPRMC,101502.00,A,1247.92766,N,08013.51366,E,2.528,,181020,,,A*71
$GPVTG,,T,,M,2.528,N,4.681,K,A*25
$GPGGA,101502.00,1247.92766,N,08013.51366,E,1,03,3.12,39.8,M,-87.6,M,,*4F
$GPGSA,A,2,31,32,26,,,,,,,,,,3.28,3.12,1.00*0C
$GPGSV,4,1,16,01,29,296,,03,05,323,,04,01,281,,08,01,227,*78
$GPGSV,4,2,16,10,37,118,08,11,21,256,,16,23,180,16,20,08,134,*7B
$GPGSV,4,3,16,21,45,248,,22,25,326,,23,11,130,,25,09,048,*74
$GPGSV,4,4,16,26,48,145,22,27,07,197,,31,57,009,25,32,27,041,16*73
$GPGLL,1247.92766,N,08013.51366,E,101502.00,A,A*6F
$GPRMC,101503.00,A,1247.92730,N,08013.51250,E,0.905,,181020,,,A*76
$GPVTG,,T,,M,0.905,N,1.677,K,A*28
$GPGGA,101503.00,1247.92730,N,08013.51250,E,1,04,3.12,39.3,M,-87.6,M,,*45
$GPGSA,A,2,31,10,32,26,,,,,,,,,3.28,3.12,1.00*0D
$GPGSV,4,1,16,01,29,296,,03,05,323,,04,01,281,,08,01,227,*78
$GPGSV,4,2,16,10,37,118,12,11,21,256,,16,23,180,11,20,08,134,*77
$GPGSV,4,3,16,21,45,248,,22,25,326,,23,11,130,,25,09,048,*74
$GPGSV,4,4,16,26,48,145,22,27,07,197,,31,57,009,24,32,27,041,17*73
$GPGLL,1247.92730,N,08013.51250,E,101503.00,A,A*69
$GPRMC,101504.00,A,1247.92744,N,08013.51160,E,0.257,,181020,,,A*7E
$GPVTG,,T,,M,0.257,N,0.476,K,A*26
$GPGGA,101504.00,1247.92744,N,08013.51160,E,1,04,3.12,38.8,M,-87.6,M,,*4B
$GPGSA,A,2,31,10,32,26,,,,,,,,,3.28,3.12,1.00*0D
$GPGSV,4,1,16,01,29,296,,03,05,323,,04,01,281,,08,01,227,*78
$GPGSV,4,2,16,10,37,118,11,11,21,256,,16,23,180,09,20,08,134,*7D
$GPGSV,4,3,16,21,45,248,,22,25,326,,23,11,130,,25,09,048,*74
$GPGSV,4,4,16,26,48,145,22,27,07,197,,31,57,009,24,32,27,041,18*7C
$GPGLL,1247.92744,N,08013.51160,E,101504.00,A,A*6D
$GPRMC,101505.00,A,1247.92741,N,08013.50975,E,1.945,,181020,,,A*7E
$GPVTG,,T,,M,1.945,N,3.601,K,A*2E
$GPGGA,101505.00,1247.92741,N,08013.50975,E,1,03,3.12,38.3,M,-87.6,M,,*4E
$GPGSA,A,2,31,32,26,,,,,,,,,,3.28,3.12,1.00*0C
$GPGSV,4,1,16,01,29,296,,03,05,323,,04,01,281,,08,01,227,*78
$GPGSV,4,2,16,10,37,118,08,11,21,256,,16,23,180,07,20,07,135,*75
$GPGSV,4,3,16,21,45,248,,22,25,326,,23,11,130,,25,09,048,*74
$GPGSV,4,4,16,26,48,145,21,27,07,197,,31,57,009,23,32,27,041,16*76
$GPGLL,1247.92741,N,08013.50975,E,101505.00,A,A*64
$GPRMC,101506.00,V,,,,,,,181020,,,N*74
$GPVTG,,,,,,,,,N*30
$GPGGA,101506.00,,,,,0,04,9.93,,,,,,*52
$GPGSA,A,1,31,10,32,26,,,,,,,,,18.06,9.93,15.09*07
$GPGSV,4,1,16,01,29,296,,03,05,323,,04,01,281,,08,01,227,*78
$GPGSV,4,2,16,10,37,118,11,11,21,256,,16,23,180,08,20,07,135,*72
$GPGSV,4,3,16,21,45,247,,22,25,326,,23,11,130,,25,09,048,*7B
$GPGSV,4,4,16,26,48,145,22,27,07,197,,31,57,009,24,32,27,041,15*71
$GPGLL,,,,,101506.00,V,N*49
$GPRMC,101507.00,A,1247.92918,N,08013.50274,E,1.414,,181020,,,A*7D
$GPVTG,,T,,M,1.414,N,2.618,K,A*2E
$GPGGA,101507.00,1247.92918,N,08013.50274,E,1,04,9.95,32.5,M,-87.6,M,,*4A
$GPGSA,A,3,31,10,32,26,,,,,,,,,18.10,9.95,15.12*0E
$GPGSV,4,1,16,01,29,296,,03,05,323,,04,01,281,,08,01,227,*78
$GPGSV,4,2,16,10,37,118,12,11,21,256,,16,23,180,08,20,07,135,*71
$GPGSV,4,3,16,21,45,247,,22,25,327,,23,11,130,,25,09,048,*7A
$GPGSV,4,4,16,26,48,145,23,27,07,197,,31,57,009,25,32,27,041,16*72
$GPGLL,1247.92918,N,08013.50274,E,101507.00,A,A*6E
$GPRMC,101508.00,A,1247.92963,N,08013.50028,E,0.923,,181020,,,A*7D
$GPVTG,,T,,M,0.923,N,1.710,K,A*2C
$GPGGA,101508.00,1247.92963,N,08013.50028,E,1,04,9.97,31.1,M,-87.6,M,,*47
$GPGSA,A,3,31,10,32,26,,,,,,,,,18.14,9.97,15.16*0C
$GPGSV,4,1,16,01,29,296,,03,05,323,,04,01,281,,08,01,227,*78
$GPGSV,4,2,16,10,37,118,13,11,21,256,,16,23,180,08,20,07,135,*70
$GPGSV,4,3,16,21,45,247,,22,25,327,,23,11,130,,25,09,048,*7A
$GPGSV,4,4,16,26,48,145,23,27,07,197,,31,57,009,24,32,27,041,16*73
$GPGLL,1247.92963,N,08013.50028,E,101508.00,A,A*66
$GPRMC,101509.00,A,1247.93003,N,08013.50110,E,1.080,,181020,,,A*79
$GPVTG,,T,,M,1.080,N,2.001,K,A*29
$GPGGA,101509.00,1247.93003,N,08013.50110,E,1,04,9.99,30.5,M,-87.6,M,,*49
$GPGSA,A,3,31,10,32,26,,,,,,,,,18.18,9.99,15.19*01
$GPGSV,4,1,16,01,29,296,,03,05,323,,04,01,281,,08,01,227,*78
$GPGSV,4,2,16,10,37,118,15,11,21,256,,16,23,180,08,20,07,135,*76
$GPGSV,4,3,16,21,45,247,,22,25,327,,23,11,130,,25,09,048,*7A
$GPGSV,4,4,16,26,48,145,24,27,07,197,,31,57,009,24,32,27,041,15*77
$GPGLL,1247.93003,N,08013.50110,E,101509.00,A,A*63
$GPRMC,101510.00,A,1247.93020,N,08013.50235,E,2.463,,181020,,,A*7E
$GPVTG,,T,,M,2.463,N,4.562,K,A*25
$GPGGA,101510.00,1247.93020,N,08013.50235,E,1,03,4.11,31.5,M,-87.6,M,,*4F
$GPGSA,A,2,31,10,26,,,,,,,,,,4.23,4.11,1.00*04
$GPGSV,4,1,16,01,29,296,,03,05,323,,04,01,281,,08,01,227,*78
$GPGSV,4,2,16,10,37,118,13,11,21,256,,16,23,180,08,20,07,135,*70
$GPGSV,4,3,16,21,45,247,,22,25,327,,23,11,130,,25,08,048,*7B
$GPGSV,4,4,16,26,48,145,23,27,07,197,,31,57,009,24,32,27,041,*74
$GPGLL,1247.93020,N,08013.50235,E,101510.00,A,A*6E
$GPRMC,101511.00,A,1247.93003,N,08013.50315,E,3.415,,181020,,,A*7D
$GPVTG,,T,,M,3.415,N,6.325,K,A*22
$GPGGA,101511.00,1247.93003,N,08013.50315,E,1,03,4.11,31.1,M,-87.6,M,,*48
$GPGSA,A,2,31,10,26,,,,,,,,,,4.23,4.11,1.00*04
$GPGSV,4,1,16,01,29,296,,03,05,323,,04,01,281,,08,01,227,*78
$GPGSV,4,2,16,10,37,118,13,11,21,256,,16,23,180,08,20,07,135,*70
$GPGSV,4,3,16,21,45,247,,22,25,327,,23,11,130,,25,08,048,*7B
$GPGSV,4,4,16,26,49,145,23,27,07,197,,31,57,009,24,32,27,041,*75
$GPGLL,1247.93003,N,08013.50315,E,101511.00,A,A*6D
$GPRMC,101512.00,A,1247.92979,N,08013.50307,E,2.539,,181020,,,A*76
$GPVTG,,T,,M,2.539,N,4.703,K,A*2E
$GPGGA,101512.00,1247.92979,N,08013.50307,E,1,03,4.11,31.1,M,-87.6,M,,*4D
$GPGSA,A,2,31,10,26,,,,,,,,,,4.23,4.11,1.00*04
$GPGSV,4,1,16,01,29,296,,03,05,323,,04,01,281,,08,01,227,*78
$GPGSV,4,2,16,10,37,118,13,11,21,256,,16,23,180,08,20,07,135,*70
$GPGSV,4,3,16,21,45,247,,22,25,327,,23,11,130,,25,08,048,*7B
$GPGSV,4,4,16,26,49,145,23,27,07,196,,31,57,009,25,32,27,041,08*7D
$GPGLL,1247.92979,N,08013.50307,E,101512.00,A,A*68
$GPRMC,101513.00,A,1247.92840,N,08013.49473,E,6.120,,181020,,,A*78
$GPVTG,,T,,M,6.120,N,11.335,K,A*13
$GPGGA,101513.00,1247.92840,N,08013.49473,E,1,04,4.12,30.6,M,-87.6,M,,*49
$GPGSA,A,2,31,10,32,26,,,,,,,,,4.24,4.12,1.00*01
$GPGSV,4,1,16,01,29,296,,03,05,323,,04,01,281,,08,01,227,*78
$GPGSV,4,2,16,10,37,118,12,11,21,256,,16,23,180,07,20,07,135,*7E
$GPGSV,4,3,16,21,45,247,,22,25,327,,23,11,130,,25,08,048,*7B
$GPGSV,4,4,16,26,49,145,23,27,07,196,,31,57,009,25,32,27,041,10*74
$GPGLL,1247.92840,N,08013.49473,E,101513.00,A,A*6E
$GPRMC,101514.00,A,1247.92728,N,08013.49158,E,6.879,216.19,181020,,,A*64
$GPVTG,216.19,T,,M,6.879,N,12.740,K,A*00
$GPGGA,101514.00,1247.92728,N,08013.49158,E,1,04,4.12,30.4,M,-87.6,M,,*41
$GPGSA,A,2,31,10,32,26,,,,,,,,,4.24,4.12,1.00*01
$GPGSV,4,1,16,01,29,296,,03,05,323,,04,01,281,,08,01,227,*78
$GPGSV,4,2,16,10,37,118,13,11,21,256,,16,23,180,07,20,07,135,*7F
$GPGSV,4,3,16,21,45,247,,22,25,327,,23,11,130,,25,08,048,*7B
$GPGSV,4,4,16,26,49,145,23,27,07,196,,31,57,009,25,32,27,041,15*71
$GPGLL,1247.92728,N,08013.49158,E,101514.00,A,A*64
$GPRMC,101515.00,A,1247.92646,N,08013.48873,E,7.448,240.09,181020,,,A*60
$GPVTG,240.09,T,,M,7.448,N,13.795,K,A*04
$GPGGA,101515.00,1247.92646,N,08013.48873,E,1,04,4.12,30.2,M,-87.6,M,,*4E
$GPGSA,A,2,31,10,32,26,,,,,,,,,4.24,4.12,1.00*01

-----------------------------------------------
Date: 18-10-2020 - 15:45:15
End log file
